name,latitude,longitude,rating,user_ratings_total,price_level,cuisine,source,place_id
Deluca's Italian Restaurant,40.51098799999999,-74.2413948,4.5,713,2.0,restaurant,google,ChIJVVVq2KHKw4kRtDExWgrsuO8
Dani's Italian Bistro,40.5111528,-74.2417001,4.5,108,2.0,restaurant,google,ChIJGwx_fJ_Kw4kRny1yq4WnfRU
Cracker Barrel Deli,40.51056670000001,-74.24854119999999,4.0,111,2.0,restaurant,google,ChIJl8GODJzKw4kRIa6MfpzFw8A
Mangia,40.5092828,-74.24661309999999,4.6,232,2.0,restaurant,google,ChIJJUytWpnKw4kR_4LxIThf9vc
Kim's Island,40.5107736,-74.2482624,4.5,99,1.0,restaurant,google,ChIJJQz5EZzKw4kRCZ95UajbyGw
Tres Amigos Taqueria & Restaurant,40.5090013,-74.2467023,4.5,299,2.0,restaurant,google,ChIJQ4oyARzLw4kRXKbILKFUVV0
Mikey Bagels,40.50987579999999,-74.2437894,4.5,218,1.0,restaurant,google,ChIJtx62LZ_Kw4kRGbtfXMjjPXk
The Creperie Corner,40.5100644,-74.24408,4.8,56,,restaurant,google,ChIJ7beiVJrLw4kRxYWEh0cgxmk
Keke's Grab N' Go,40.5100248,-74.24392569999999,4.4,83,2.0,restaurant,google,ChIJN2c6L5_Kw4kRVA7mLIa2eyY
Gigi's Cafe & Keke's Pizzeria,40.5100828,-74.2439936,4.6,93,2.0,restaurant,google,ChIJZTzEKJ_Kw4kRBEkeoKf0YZ0
Taqueria Oaxaca,40.5109187,-74.2485147,4.2,180,1.0,restaurant,google,ChIJ03RREpzKw4kRDyLKJR7lwJ4
Rita's Italian Ice & Frozen Custard,40.5110402,-74.2486428,4.8,29,1.0,restaurant,google,ChIJ59v9c65LwokRaQDhIrj30w4
Rocky's Pizza Bar,40.51101119999999,-74.242012,4.4,39,,restaurant,google,ChIJ-c9-EwDLw4kRSjbRuHeclU8
Coral Bay Cafe,40.4992432,-74.2390059,4.2,237,2.0,restaurant,google,ChIJ8Zcs173Kw4kRbIjQkXWb_48
Dunkin',40.51097720000001,-74.2409529,3.2,19,1.0,restaurant,google,ChIJY3pYcyHLw4kR56TIh7oPfI4
Shell,40.50754,-74.22966,3.9,11,,restaurant,google,ChIJo1B249zLw4kR45kg8eTmJjo
Chef Hong II,40.512152,-74.239057,4.3,133,1.0,restaurant,google,ChIJsdt-W6DKw4kRXdfcvg_BsTc
Angelina's Restaurant,40.5134807,-74.2515884,4.4,972,3.0,restaurant,google,ChIJd-F5EJ3Kw4kR1TKzg-9DQdk
Towne Deli & Pizzeria,40.51350499999999,-74.2481014,4.4,728,2.0,restaurant,google,ChIJ2V-xxJ3Kw4kRxRjvo74pg1Q
Paradise Island,40.5155194,-74.24934979999999,4.0,231,2.0,restaurant,google,ChIJIYJSgOfLw4kR6M63qFfPOho
Fina's Farmhouse,40.51734,-74.2409737,4.1,197,2.0,restaurant,google,ChIJg0dolBu1w4kRjofT2os5QFI
Subway,40.5169606,-74.2333084,4.0,92,1.0,restaurant,google,ChIJ1_UebVm1w4kRV3k-1GSarWg
Zio Toto Restaurant and Bar,40.5221056,-74.2355278,4.3,279,2.0,restaurant,google,ChIJF_O7X1u1w4kRseVXFKDiyMM
E Squared Cafe & Hookah Lounge,40.51797120000001,-74.2361823,4.2,33,,restaurant,google,ChIJve5z4lu1w4kRZbfjgKLcgMU
Villa Monte Pizzeria South,40.5166363,-74.2344864,4.2,243,2.0,restaurant,google,ChIJq6rqPFm1w4kRKqEtEpUEERQ
QDOBA Mexican Eats,40.5169739,-74.2341608,4.2,377,1.0,restaurant,google,ChIJ-zPTIlm1w4kRk9873jeFp-E
Campania Coal-Fired Pizza,40.5181079,-74.2355185,4.4,499,2.0,restaurant,google,ChIJxaOvrV61w4kRqFfaL_wcPyE
La Rosa Chicken & Grill Restaurant - Richmond Valley,40.52168,-74.2368561,4.1,203,2.0,restaurant,google,ChIJYefn9Fy1w4kRVMQrjHVqiN0
Mizu Japanese Restaurant,40.51797120000001,-74.2361823,4.0,214,2.0,restaurant,google,ChIJwc2541u1w4kRPBW9CFv81CI
McDonald's,40.51773620000001,-74.23475169999999,3.3,874,1.0,restaurant,google,ChIJOyOxW1m1w4kRX135VQ1AeMQ
W's Bar And Grill,40.5163194,-74.2343482,4.3,113,,restaurant,google,ChIJ-zPTIlm1w4kRVI7vIjaK5DM
Tropical Smoothie Cafe,40.51683800000001,-74.234298,4.2,74,1.0,restaurant,google,ChIJK--76l-1w4kRAOB2TPTvexw
Peking Taste,40.5174861,-74.2357984,4.5,10,,restaurant,google,ChIJcTUsdgC1w4kRLGcHGlXKUhE
Nonna's Pizza Tottenville,40.5168177,-74.2330848,4.2,72,,restaurant,google,ChIJvQMpTiq1w4kRgMLYuOMzoPA
Taco Bell,40.5180116,-74.2341852,3.3,71,1.0,restaurant,google,ChIJd53fGJ5LwokRRu3U0nGZCrM
Starbucks,40.52163700000001,-74.23552099999999,4.1,400,2.0,restaurant,google,ChIJFzeXZlu1w4kRMNIwBoFXfWc
Popeyes Louisiana Kitchen,40.5204992,-74.2356779,2.9,109,2.0,restaurant,google,ChIJD6s0pwS1w4kRO7tHMTSmfPs
Baya Bar - Acai & Smoothie Shop,40.5192715,-74.2297005,4.5,174,2.0,restaurant,google,ChIJjezkd1q1w4kRFR576JgZP9M
Loon Chuan Chinese Restaurant,40.522215,-74.234599,3.8,169,2.0,restaurant,google,ChIJ_6FkRFu1w4kR34JKuwoWBjQ
Serena Bistro and Lounge,40.5219371,-74.2356348,4.5,57,,restaurant,google,ChIJhyiVn1y1w4kREHS26kA4IcE
Palermo Pizza,40.5219753,-74.2345899,4.4,229,2.0,restaurant,google,ChIJ4WK8iwi1w4kRBs-7FdGhEfo
Wendy's,40.52115570000001,-74.2169681,3.8,725,1.0,restaurant,google,ChIJ27bnkrJKwokRpOfDJWFjGpw
Ariana’s Cucina,40.5210567,-74.2175859,5.0,1,,restaurant,google,ChIJp2LcBwBLwokR4tJkxOW_cvY
Yosuki Sushi,40.5217445,-74.2152007,4.5,97,2.0,restaurant,google,ChIJS-qgzPdLwokRo-F3uDo72SY
Domino's Pizza,40.52177,-74.215062,3.4,65,1.0,restaurant,google,ChIJjYtPi7NLwokR0KStPUc2hUI
the Rock House bar and grill,40.5136879,-74.1963332,4.7,91,2.0,restaurant,google,ChIJqVZZKX9LwokRbpA8-DGYt08
Z-Two Restaurant & Lounge,40.5272941,-74.2307968,4.2,1580,2.0,restaurant,google,ChIJ7-_l40W1w4kR_YnkORi-bGk
Aunt Butchie's of Brooklyn,40.5235329,-74.2385178,4.4,613,2.0,restaurant,google,ChIJdxpyK121w4kRSH7euk_tghk
Avocado Sushi,40.5226312,-74.23894560000001,4.2,199,2.0,restaurant,google,ChIJb1NdIF21w4kRGTmTx_3qrH0
Oishi Sushi & Izakaya,40.523943,-74.23439499999999,4.4,233,2.0,restaurant,google,ChIJs7NcuUS1w4kRp5pmNP9cCxM
Dunkin',40.5272903,-74.2318427,3.7,76,1.0,restaurant,google,ChIJ0Wjfq0a1w4kRehgWC2trwQw
Lobster House Joe's,40.5280519,-74.2400102,4.3,595,2.0,restaurant,google,ChIJl3kLPUK1w4kR8B1dskvDkt4
7-Eleven,40.5241205,-74.2343941,3.4,23,1.0,restaurant,google,ChIJ41AkvkS1w4kR19vduq-GQt0
Pronto Pizza Pasta,40.52658499999999,-74.23093399999999,4.3,329,1.0,restaurant,google,ChIJKxTK0EO1w4kRhmq7MtobXrA
Page Plaza Diner,40.522379,-74.234616,4.3,1015,2.0,restaurant,google,ChIJg4tlT1u1w4kRO_C_7MEGJi8
Yaho Sushi,40.523164,-74.234487,4.8,85,2.0,restaurant,google,ChIJmX7bIj-1w4kRBjlmUe3QGYQ
Uncle Sal's Burgers and Wings,40.52328019999999,-74.2344858,4.8,34,,restaurant,google,ChIJmfZUawC1w4kRpkoRWCABPFg
Laila Restaurant And Lounge,40.52328019999999,-74.2344858,4.5,755,2.0,restaurant,google,ChIJC8_ABDG1w4kRzefkwksjFRY
Beans and Leaves Coffee and Tea Cafe,40.5221939,-74.23887530000002,4.3,79,1.0,restaurant,google,ChIJt6_ZBp-1w4kRo1K9JxW54bs
Tutto Apposto Cucina Italiana,40.5236777,-74.234417,4.7,223,,restaurant,google,ChIJy-KpVN-1w4kRzagKeBn_31g
Patrizia's Of Tottenville,40.52223960000001,-74.2390518,4.5,452,2.0,restaurant,google,ChIJObgjtWi1w4kRt5lfENprOpI
Hibachi 4 World,40.5239654,-74.2343941,5.0,1,,restaurant,google,ChIJzYOpkg-1w4kReuQIHS6ec_g
Ho' Brah,40.5228813,-74.2395523,4.5,345,2.0,restaurant,google,ChIJd2O20Za1w4kR1n-5W0WKoZE
Dunkin',40.5274882,-74.2341005,3.0,30,1.0,restaurant,google,ChIJz7uXAE61w4kRj2bIU24cd-U
Crepe N Tea,40.52661299999999,-74.23141369999999,5.0,56,,restaurant,google,ChIJISLZYH21w4kRiA2ejEqJCh4
G's Cheesesteaks,40.5273545,-74.23255999999999,5.0,2,,restaurant,google,ChIJdQ2lMwC1w4kRwmzNOAphAw0
Filoncino Cafe - Tottenville,40.526814,-74.2311759,4.6,92,,restaurant,google,ChIJG-kPTgC1w4kRPkvtYop36II
Valducci's Pizza,40.52915000000001,-74.23499699999999,4.2,38,2.0,restaurant,google,ChIJJz01kda1w4kRl7_X1p7-bJY
Applebee's Grill + Bar,40.5301017,-74.22911069999999,4.1,1113,2.0,restaurant,google,ChIJeUd4fEi1w4kREx4uRbUiGCY
Dunkin',40.5222029,-74.2159096,3.8,85,1.0,restaurant,google,ChIJ9xCIr7JKwokRoSPAJ8Wv22s
IL FORNO PIZZERIA,40.52217,-74.216532,4.4,105,2.0,restaurant,google,ChIJn-IPwrJKwokRMB7jnZmWDbU
Supreme Memorials,40.5217878,-74.2177293,4.9,20,,restaurant,google,ChIJQfxbtLJKwokR_1913fFTryo
Hot Shotz Sports Bar,40.5234042,-74.2163217,4.6,120,1.0,restaurant,google,ChIJ3VjjHrNKwokRgsoqLYnTQMA
"Amici Brick Oven Pizza - Staten Island, NY",40.5235882,-74.2161169,4.5,187,2.0,restaurant,google,ChIJW1YGGrNKwokRtPzrBsMeOmY
Cucumber Sushi & Salad Bar,40.5256243,-74.201889,4.3,197,,restaurant,google,ChIJQbuw4bhKwokRgh9rEB77Z9k
New Island,40.525715,-74.200652,3.9,129,1.0,restaurant,google,ChIJeTIF1rhKwokRtNPaTSH0Saw
Domenico's Pizza & Pasta,40.5257678,-74.20198409999999,4.2,241,1.0,restaurant,google,ChIJwQP44bhKwokRWXS0Y30NbEQ
Breaking Bread,40.52569039999999,-74.20064409999999,4.2,136,,restaurant,google,ChIJbwds9ZZLwokRPR326llEtEA
Starbucks,40.52677,-74.20152999999999,3.5,203,2.0,restaurant,google,ChIJdfbdqFtLwokRmGBgEXJxDyU
Daddy O's BBQ & Sports Bar,40.5308119,-74.23086169999999,4.0,320,,restaurant,google,ChIJC9SNPUm1w4kRajLLFCvIlbI
Killmeyer's,40.538448,-74.237166,4.4,907,2.0,restaurant,google,ChIJVVVZIDy1w4kR7hYgSuVrFwc
Fuel Grill & Juice Bar,40.53205039999999,-74.23951269999999,4.7,49,2.0,restaurant,google,ChIJ-9unI721w4kRVu5Kf5EJsyc
Millie's of Staten Island,40.5308065,-74.2310481,4.3,624,2.0,restaurant,google,ChIJf59_Lka1w4kRTD0lCt3h5Pc
Chipotle Mexican Grill,40.5309216,-74.2309349,2.6,43,,restaurant,google,ChIJh-uOagC1w4kRSMA7SvjKxwk
Artisan Bakers Group,40.5388829,-74.2413701,4.6,80,2.0,restaurant,google,ChIJi8K7Cha1w4kRacAbfHzhtW8
Kuzina,40.5327151,-74.1917466,3.7,159,1.0,restaurant,google,ChIJtyuqnOlKwokRQB2Sq0G-xZc
Ciro Pizza Cafe,40.533306,-74.1927722,4.1,567,2.0,restaurant,google,ChIJtYIQlelKwokRKVK_qO2XY04
Chopsticks House,40.5327151,-74.1917466,3.9,69,1.0,restaurant,google,ChIJx_l-m-lKwokRXWbFoqCvVXY
Dunkin',40.5325562,-74.1917115,3.9,210,1.0,restaurant,google,ChIJlfYHg-lKwokRo6At24Za7iA
Pizza Mia,40.532565,-74.1922744,5.0,7,,restaurant,google,ChIJtUwglKhLwokRQX5HW667aac
Better Gourmet Health Kitchen,40.5330013,-74.1922246,4.6,156,,restaurant,google,ChIJUcDwmelKwokRBaul5amwsD0
Tejanos Taqueria,40.5325912,-74.1919075,4.2,70,2.0,restaurant,google,ChIJESPt02dLwokR4HCfaC9RxAI
Panino Rustico of Huguenot Express,40.5327181,-74.19174129999999,4.1,41,1.0,restaurant,google,ChIJ5dT3p-BLwokRy1iXaE6-9rI
La Fontana Sorellena,40.540069,-74.17681069999999,4.6,162,2.0,restaurant,google,ChIJHS4yAfxKwokRk5z8cYN2eHQ
Mike's Place,40.5291583,-74.16249719999999,4.0,736,2.0,restaurant,google,ChIJkX5Sn1tKwokRfc_kEteiM5M
‘O Sfizio Ristorante,40.5294873,-74.1616851,4.7,255,,restaurant,google,ChIJBfbEmDtLwokRmCrCnmJRGwU
Shell,40.536415,-74.15102399999999,3.2,26,2.0,restaurant,google,ChIJU7kP10tKwokR5UXL1Mqpt9Y
Cucumber Sushi & Salad Bar on Hylan,40.5374442,-74.15076839999999,4.4,137,,restaurant,google,ChIJv6TotUtKwokRkwAZ1IWd1GA
Good Taste,40.5375441,-74.1507416,4.4,94,,restaurant,google,ChIJv6TotUtKwokRRn63t2k7dlM
Hong Kong Kei One,40.53757580000001,-74.1505462,4.5,263,,restaurant,google,ChIJa37ktEtKwokRdcFKL7L2dIE
Trattoria Toscana,40.5373393,-74.1499572,4.5,378,,restaurant,google,ChIJq-438x9LwokRMl2keWYCB2s
Fine Italian Restaurant,40.53753749999999,-74.149942,4.0,1,,restaurant,google,ChIJGTIUSUpKwokRniLkzhPXJno
Andrew’s Diner,40.53819999999999,-74.149075,4.5,1373,2.0,restaurant,google,ChIJW_9gXkpKwokRsLlazpU0MlY
The Loop Pizza Cafe,40.5459776,-74.2301,4.8,6,2.0,restaurant,google,ChIJg_VAcQC1w4kR325dnnlhT3w
Dunkin',40.5485043,-74.2218872,3.9,160,1.0,restaurant,google,ChIJO4HysSu1w4kRADWtqGeHKfE
Red's Hotdog Stand,40.5490916,-74.2235382,4.9,69,1.0,restaurant,google,ChIJS3FY4zi1w4kRok5AROHLN18
QDOBA Mexican Eats,40.5419437,-74.20765229999999,4.1,386,1.0,restaurant,google,ChIJ7wFzidBKwokRW1Nu424O304
Sunset Pizza,40.54277,-74.20781199999999,4.1,146,1.0,restaurant,google,ChIJS8RulQZLwokRjHFUMEU_ZQ8
Misaki Sushi,40.542817,-74.20779809999999,4.4,189,2.0,restaurant,google,ChIJdfkC69BKwokRsjart24mzGY
Starbucks,40.54208999999999,-74.20693,4.1,358,2.0,restaurant,google,ChIJofWYhdBKwokRuH3uPHoNJeo
Dunkin',40.54295809999999,-74.2070311,3.9,112,1.0,restaurant,google,ChIJ6WzuodBKwokRJ8CQbY1Qkcs
Islander Taste Chinese Restaurant,40.542817,-74.20779809999999,4.1,130,1.0,restaurant,google,ChIJ-5JB69BKwokRpZuLSvmT_7Q
Playa Bowls,40.5421456,-74.2074313,4.8,185,2.0,restaurant,google,ChIJ9Vrc-iVLwokRxruZkezTnH8
EatItalian NYC,40.5429849,-74.20719989999999,4.5,432,2.0,restaurant,google,ChIJARQkEkZLwokRMcNtYc0S9mo
Woodrow Diner,40.5428974,-74.2067591,4.0,156,,restaurant,google,ChIJmwHuhzdLwokRJgk3PxMZBcY
Wingstop,40.5427994,-74.20628479999999,2.8,24,2.0,restaurant,google,ChIJ9bfHnKRLwokR_r-ojGbMks0
Ocean Sushi,40.5411672,-74.1782628,4.6,304,2.0,restaurant,google,ChIJlQwTFfxKwokRhj9ExJdD4js
Ambrosino's Arden Heights,40.54120710000001,-74.1781884,3.1,73,1.0,restaurant,google,ChIJR6abFfxKwokRXe0zFA2ebJQ
The Pizza Parlor,40.54045519999999,-74.1770846,4.1,566,2.0,restaurant,google,ChIJlyMdA_xKwokRnpHw3NVjp_o
Privé,40.54210269999999,-74.17710319999999,4.2,132,2.0,restaurant,google,ChIJ7bHDK_xKwokRVZsTHsvAIYg
Annadale Terrace,40.5423763,-74.177249,4.4,1516,2.0,restaurant,google,ChIJlSP8K_xKwokRj4sGCUBFkpQ
Il Sogno Ristorante Italiano,40.5413224,-74.17845919999999,4.4,290,2.0,restaurant,google,ChIJXa71PfxKwokRBFEy2kwMxdk
Mona Lisa Pizzeria,40.541357,-74.176878,4.3,251,2.0,restaurant,google,ChIJX38eIfxKwokRVc22kVXO16k
Staten Island House of Wings II (Annadale),40.5411449,-74.1782401,4.9,295,,restaurant,google,ChIJgdtKx0JLwokRhedrEsA2bcE
Healthy Kitchen,40.5411449,-74.1782401,,0,,restaurant,google,ChIJQ34DM6xLwokRS6pxDcCjNO8
District,40.5403647,-74.1771244,3.8,202,2.0,restaurant,google,ChIJQ8tKBWRLwokRwULSn-fH_k4
The Square on Annadale,40.5414275,-74.1771342,4.0,191,1.0,restaurant,google,ChIJd3NLIfxKwokRFpdHgMXXZ7o
Annadale Bakery,40.54180269999999,-74.1773002,4.7,465,2.0,restaurant,google,ChIJpwhsL_xKwokR9nZAa2nF7Q4
Subway,40.5449942,-74.160139,4.0,81,1.0,restaurant,google,ChIJFfVHj61LwokR1FLMnExxRSI
Kiku,40.54434699999999,-74.165731,3.8,271,2.0,restaurant,google,ChIJg73kXKtLwokRzEL-VwIHpk0
Campania Coal-Fired Pizza,40.542787,-74.16409,4.5,917,2.0,restaurant,google,ChIJrUXGTVNKwokR16HQ8JMcvwM
Dunkin',40.5440367,-74.16474769999999,3.7,373,1.0,restaurant,google,ChIJEYOnpqxLwokRxyO3ByvcraM
Wendy's,40.54408829999999,-74.1633741,3.7,893,1.0,restaurant,google,ChIJs-PJwKxLwokRdAJ5GH1Y4Bg
Empire Szechuan,40.5454465,-74.16191119999999,3.5,143,2.0,restaurant,google,ChIJVwrM31xLwokRGtDhLUUzYXo
Sal & Lloyd's Pizza Place,40.54388269999999,-74.16520229999999,4.7,170,1.0,restaurant,google,ChIJv-CCWKtLwokRaxPalwxMz_c
Domino's Pizza,40.5427488,-74.16411459999999,3.4,260,1.0,restaurant,google,ChIJv3p4S1NKwokRynWvwHzrE5E
Tomo Sushi Japanese Cuisine & Bar,40.54305069999999,-74.16569539999999,4.2,159,2.0,restaurant,google,ChIJ901_V1NKwokRNI-LTgxs4nM
Burger King,40.5432726,-74.1638517,3.5,451,1.0,restaurant,google,ChIJGVCIs6xLwokR0NBCF5vXVZw
China Chalet,40.5452123,-74.15954889999999,4.0,187,2.0,restaurant,google,ChIJmStuha1LwokRaNNHVDLRoAg
Joyce's Tavern,40.545081,-74.16539,4.4,522,2.0,restaurant,google,ChIJyS_QfKtLwokR6vPY0aWPKwo
East Sushi,40.545468,-74.16181399999999,3.4,46,,restaurant,google,ChIJMdmspK1LwokRkYEguoHA0jU
Ali Baba Middle Eastern Cuisine & Café,40.5430012,-74.1654971,4.2,156,1.0,restaurant,google,ChIJC9m2rVRKwokRiKqJJ0xG2Tk
Mike Jr’s Richmond Diner,40.5416625,-74.1631208,4.4,395,1.0,restaurant,google,ChIJz-F3PVNKwokR71FutA6WhkE
Madeleines Farmstand & Cafe,40.5435672,-74.16495379999999,,0,,restaurant,google,ChIJXz6IKQBLwokRPrQo0-pR4vA
Island Smoothies,40.5435793,-74.1649729,4.8,17,1.0,restaurant,google,ChIJQTPGHFNLwokRroTyCvfDd9U
Halal Chicken Gyro,40.5435347,-74.164709,4.3,4,,restaurant,google,ChIJKzrZfU5LwokR5uIBdimk7BE
BOWL ME UP,40.5439381,-74.1651605,4.9,121,2.0,restaurant,google,ChIJ8Yb-6ixLwokRFV-RuGJvuN0
Krave It Cafe,40.5439742,-74.1651986,4.8,92,2.0,restaurant,google,ChIJ942a_2BLwokR2cQbKjDXpe4
Baya Bar Richmond Ave,40.5447817,-74.1658789,3.9,60,2.0,restaurant,google,ChIJyRZXyNNLwokRorQ2IAyc9Ic
DOUGH by Licastri Eltingville,40.5448653,-74.1653819,4.2,118,2.0,restaurant,google,ChIJscFLJV5LwokRQQoZ4InzZnY
Sapori Ristorante,40.54504319999999,-74.16594769999999,4.9,354,2.0,restaurant,google,ChIJYQchsYFLwokRyef6-Xp1JWY
Ohkami Ramen,40.54492090000001,-74.16535139999999,4.8,473,2.0,restaurant,google,ChIJITkmBZFLwokR4iRDlw2wN18
Le Malt Imperiale,40.5445246,-74.1640441,4.3,31,,restaurant,google,ChIJs3n8yPRLwokR7nrLxFxiEB4
Kingdom Pizza,40.5448741,-74.1601481,4.3,196,1.0,restaurant,google,ChIJl-tjma1LwokRuHH4LDw7wYc
Richmond Republic,40.5445801,-74.1628672,4.2,815,2.0,restaurant,google,ChIJ__-P76xLwokRYr5m-jqhasI
Frank And Danny's,40.54555809999999,-74.1616662,4.2,229,1.0,restaurant,google,ChIJoxTfq61LwokR5mFmIAAOWsI
Sofia's Taqueria (Amboy Rd),40.5444622,-74.1608332,4.4,619,2.0,restaurant,google,ChIJeyjKMadLwokRu_w2UwsmMX4
Avocado Sushi,40.5451014,-74.1599568,4.0,208,,restaurant,google,ChIJbTiZmq1LwokRoeJ7536OTvQ
Riva Mediterranean & Turkish Cuisine,40.5453225,-74.15937819999999,4.8,476,2.0,restaurant,google,ChIJBYI5ScNLwokRxyHhpDmsO5M
Original Giuseppes Pizza,40.545628,-74.1589282,4.5,180,,restaurant,google,ChIJ394ldbJLwokRx_Xxs_30cpk
Patrizia's of Brooklyn,40.5472234,-74.15794319999999,4.5,2301,2.0,restaurant,google,ChIJublB87FLwokRIcJ3FSxhM5I
Goodfella's,40.54167059999999,-74.1468653,4.6,1312,2.0,restaurant,google,ChIJDWI8hsROwokRwFYtU_yYA5I
Pacific Kitchen,40.547554,-74.158003,4.4,139,,restaurant,google,ChIJublB87FLwokRsbuC2k0zSD0
Giuliana’s Ristorante,40.539822,-74.1485189,4.7,508,2.0,restaurant,google,ChIJNxTtvEpKwokRSS-9_PbvSfM
Nature's Grill Staten Island,40.5394992,-74.148792,4.4,41,2.0,restaurant,google,ChIJr7SSCQBLwokRFvDtH2yRhHA
Big Al’s Pizza,40.5406803,-74.1477484,3.9,92,1.0,restaurant,google,ChIJUSc3d-VLwokRMOUWkGWzgjg
Uncle Louie G Italian Ice & Ice Cream,40.54025180000001,-74.147435,3.6,8,2.0,restaurant,google,ChIJudSzFzZLwokRc71ghDpiFLM
Island Social,40.54060709999999,-74.14708739999999,4.9,170,2.0,restaurant,google,ChIJgURUsgBLwokRHeklNKDfUOs
Banhmis & Asian Cuisine,40.5415019,-74.1461836,4.6,145,1.0,restaurant,google,ChIJaXkhOtVLwokR1c8NJ3hEU7Q
Dunkin',40.5418284,-74.1459714,3.8,184,1.0,restaurant,google,ChIJcekwlcpLwokReJRyPPEJy-8
Oishii Sushi,40.5422866,-74.1453859,4.9,159,2.0,restaurant,google,ChIJJViQEwBLwokR8ygdhFdHk-A
Basil Indian Cuisine,40.54258209999999,-74.14535149999999,4.7,144,2.0,restaurant,google,ChIJweO5VNBLwokRwfRvpDWB85g
Marina Cafe Restaurant & Tiki Bar,40.5441215,-74.1408558,4.4,1641,3.0,restaurant,google,ChIJ0VbzEMxLwokRXwhbOPUmO14
Cole's Dock Side,40.54267670000001,-74.14244889999999,4.5,900,2.0,restaurant,google,ChIJ98BMg8tLwokRlNyfzaaIXq4
Fiore Di Mare,40.542868,-74.142427,4.5,268,2.0,restaurant,google,ChIJ86r3hMtLwokRZbzOxA5J5Jc
Mansion,40.5447091,-74.1407802,4.5,180,,restaurant,google,ChIJ044wt69LwokRin3tbNEPoZ8
Candy Zone Wholesale Distributor,40.5493519,-74.23017569999999,3.0,2,,restaurant,google,ChIJi74BJLVPwokRiMcu-ULl9vg
The Historic Old Bermuda Inn,40.55363810000001,-74.21751309999999,4.5,930,2.0,restaurant,google,ChIJ2zI4MCtLwokR16h193lZwfY
Big Nose Kate's Saloon,40.55405959999999,-74.21757099999999,4.2,304,2.0,restaurant,google,ChIJA2RnMytLwokR4bdtRVKSiFI
Rossville Pizza,40.5495059,-74.22128,4.4,391,1.0,restaurant,google,ChIJVW_9Xiq1w4kR4OXpsBkvclA
Happy Fortune Chinese Restaurant,40.5516761,-74.2123776,3.4,97,,restaurant,google,ChIJx-qegClLwokRjrR4run8MfA
Pino's Pizzeria,40.55182810000001,-74.2121682,4.3,158,2.0,restaurant,google,ChIJo6qdgClLwokR-wRywRKX-mA
Mamma Mia Pizzeria & Cucina,40.5508271,-74.2106184,4.3,100,2.0,restaurant,google,ChIJYT5jcPJLwokRAihPZ3BRsmQ
Rossville Best Pizza & Pasta,40.5508372,-74.2106081,4.6,89,,restaurant,google,ChIJ6b3-vylLwokRfxwaTijchdg
Genki Sushi,40.5527452,-74.1933304,4.3,362,2.0,restaurant,google,ChIJ52XV6M5LwokR1pdg5gGX61w
Subway,40.55293299999999,-74.192849,2.8,44,1.0,restaurant,google,ChIJ28H8vhhLwokRfVhMbc2myi8
Peking Taste,40.5530978,-74.1923432,4.0,143,,restaurant,google,ChIJ_2V8LxlLwokR1WeqpjgF5-U
Buddy's Café & Playplace,40.5529373,-74.1929158,4.8,131,1.0,restaurant,google,ChIJOcvkwzNLwokRK2p4tRh_zgA
Ambrosino's,40.55358289999999,-74.1931096,4.1,120,1.0,restaurant,google,ChIJPbCxY8tLwokReIMapkU0De4
Chick n' Cha,40.5530978,-74.1923432,3.7,6,,restaurant,google,ChIJIXWxYhRLwokRvV4SWLTvxLY
Arirang Hibachi Steakhouse,40.54955669999999,-74.150093,4.7,2651,2.0,restaurant,google,ChIJWW1zCbdLwokRDLkvEkP8w68
Piccolino Ristorante NY,40.55166610000001,-74.1497515,4.6,442,2.0,restaurant,google,ChIJq5_pJbhLwokRydQxnlbDe4M
Mimmo's Brick Oven Pizza & Trattoria,40.55121630000001,-74.1501177,4.5,467,2.0,restaurant,google,ChIJw26vK7hLwokRPA91FPGvJcY
La Candela Española,40.5516432,-74.14930559999999,4.3,278,2.0,restaurant,google,ChIJjZKYPLhLwokR0nRmz1ON7zU
Lucky Fortune,40.5515377,-74.1500764,3.8,166,2.0,restaurant,google,ChIJTT_OgLdLwokRo4ic9yy4Pyo
Nonna's Pizza Great Kills,40.5511082,-74.15119170000001,4.5,617,1.0,restaurant,google,ChIJiyXC17lLwokRdspxLPbtttY
Village Maria Pizzeria,40.5503418,-74.15081169999999,4.1,293,1.0,restaurant,google,ChIJXQW4cLdLwokR7q-U7rKz6k0
Anthony's Paninoteca,40.5501619,-74.15048929999999,4.8,161,2.0,restaurant,google,ChIJPwr-W95LwokRQxm9PcvNfIE
Da Damaso,40.55065010000001,-74.1504753,4.8,159,,restaurant,google,ChIJhd9WhEpLwokR6GTRhpvxzQI
New Foo Sing,40.550709,-74.150444,4.0,56,2.0,restaurant,google,ChIJkcoJgrdLwokRj4n2fM7_qzs
La Iguana Azul restaurant & lounge,40.55102319999999,-74.15034229999999,4.0,431,2.0,restaurant,google,ChIJ_zqHKrhLwokRq-DW85lWXNc
Café Bella,40.5514269,-74.15053990000001,5.0,1,,restaurant,google,ChIJ_d0U07lLwokRkW11BR4PDCw
Flavors Of Faith,40.5514901,-74.15056179999999,,0,,restaurant,google,ChIJ41gD07lLwokRIRirOUDUsRg
AZ EXOTIC SNACKS,40.5514825,-74.1505512,5.0,3,,restaurant,google,ChIJYxQb07lLwokRv3TUBUz6sOY
Cocina Mi Encanto Mexa Food,40.5517827,-74.15071859999999,5.0,29,,restaurant,google,ChIJrWrM3HxLwokRDOsgh9fB8z4
Mercado Ariana Restaurant & Bar,40.55177570000001,-74.1506905,,0,,restaurant,google,ChIJD0e_zblLwokRLv6DhOjLUH0
The Sandwich Shop Staten Island,40.5526017,-74.1505936,4.6,250,2.0,restaurant,google,ChIJA5lFv8pLwokRySVl1vKj93c
Omakase Ichi,40.5511117,-74.1495259,4.9,109,,restaurant,google,ChIJAwHF9LVLwokRdspAFwrnOBo
JD's Tavern,40.5512135,-74.1495011,4.4,226,2.0,restaurant,google,ChIJ4_8ru0FLwokRPZ9X-61kU4M
Greek foos,40.55046129999999,-74.14599369999999,,0,,restaurant,google,ChIJD5ezbgBLwokR4EA9SRTli1k
Genki Sushi,40.5538195,-74.1427483,4.4,378,2.0,restaurant,google,ChIJ7wnmuMZLwokRQC790GkAuFo
Villa Paradiso Ristorante Italiano,40.5534203,-74.1435742,4.6,541,2.0,restaurant,google,ChIJb_L0pMZLwokRt8kbZIH-v5o
Dunkin',40.55427009999999,-74.1431985,3.9,160,1.0,restaurant,google,ChIJ3TET9sNLwokRT34QGct-JSg
Breezy Point Surf Club,40.5519268,-73.9317645,4.2,150,,restaurant,google,ChIJmXCSHP9DwokRI4xRfqR14F0
Shell,40.559309,-74.1975695,3.8,48,2.0,restaurant,google,ChIJ95Jo4zxLwokR4j9hiNXeOPk
Dunkin',40.5594007,-74.19778389999999,4.1,162,1.0,restaurant,google,ChIJ95Jo4zxLwokRlbbqIjbPSs4
new Island Wok,40.55972570000001,-74.1973421,3.9,70,1.0,restaurant,google,ChIJ0XWW6KdLwokRRYBiVnYvcOw
Royal Pizza,40.55969810000001,-74.19719289999999,4.9,182,1.0,restaurant,google,ChIJnc661NBLwokRiWRZfvzIgVc
Chen's Garden,40.5633031,-74.1917139,4.0,100,1.0,restaurant,google,ChIJsU2T02lLwokRdcds8rhHrkA
Zaika Kitchen,40.5635421,-74.19176809999999,5.0,2,,restaurant,google,ChIJjztNejVLwokRl1GW8fQKSqg
Tony's Best Pizza & Pasta,40.5640678,-74.1918199,4.3,16,,restaurant,google,ChIJVc09VJ9LwokRSTGt9e52wx4
Pronto Pizza Pasta,40.55853999999999,-74.1690114,3.9,198,2.0,restaurant,google,ChIJm4yyNKdLwokRtoMJu0-o14k
Dove Diner,40.5590082,-74.1691159,4.1,1056,2.0,restaurant,google,ChIJe1xfzqBLwokRscB_tQj2bqA
McDonald's,40.5596469,-74.16819300000002,3.6,1178,1.0,restaurant,google,ChIJAU-quKBLwokRkSe_AEI9SV8
Best Halal Food,40.5603857,-74.16962989999999,4.4,343,1.0,restaurant,google,ChIJ3b58k6BLwokRyaXBr0cyCS4
Arianas Bagels & Mexican Food,40.55849449999999,-74.16902019999999,3.7,3,,restaurant,google,ChIJg-g4gyxLwokR5dDVBzXoBj0
Mercado Ariana restaurant,40.5584762,-74.16896349999999,4.2,140,2.0,restaurant,google,ChIJbc5nb8VLwokRjuZKK90WXKE
Casa Nino's Pizza Bar,40.56577059999999,-74.18288600000001,4.6,248,2.0,restaurant,google,ChIJVdA4CF9LwokRoK_hQJyZgvw
Country Donuts,40.5603519,-74.1688308,4.3,513,1.0,restaurant,google,ChIJFRCFjaBLwokRmr5D6BnqMvg
Zara Arthur,40.5606385,-74.1687097,4.5,114,,restaurant,google,ChIJTfnAAgBLwokRetLO1bIBRBg
Teriyaki One Japanese Grill (Teriyaki & Sushi),40.5595276,-74.16837869999999,4.9,189,1.0,restaurant,google,ChIJX6Nc0s9LwokRYTqf58gWmhE
Yala Halal Food - South shore,40.5595316,-74.1682483,4.2,433,1.0,restaurant,google,ChIJj6DdpxdLwokR3fMBsE87ZWs
Corrado's Cucina,40.56106580000001,-74.1686486,4.8,684,2.0,restaurant,google,ChIJcYdYrqVLwokRzs2cBgkcUDk
El Tri Mexican-Delivery Only,40.566416,-74.18312470000001,3.7,6,,restaurant,google,ChIJDWcczxRLwokRP3kbC_-92GY
La Vita Mia Pizza and Panini & Italian Specialties Market,40.566416,-74.18312470000001,4.5,11,2.0,restaurant,google,ChIJF_tVby9LwokRPny8aVgxx-g
Dunkin',40.56021370000001,-74.1636037,3.5,414,1.0,restaurant,google,ChIJu2XixaNLwokRkVhgFDCj2Os
Planet Wings,40.55947479999999,-74.1645644,3.5,159,1.0,restaurant,google,ChIJg9o80qNLwokRibtw1e_5-Yo
EMPIRE BAGLES & MORE,40.5598091,-74.166336,,0,,restaurant,google,ChIJIRScoFlLwokR7tCk1fVutco
Pizzaioli of Staten Island,40.5594463,-74.1644799,4.4,251,2.0,restaurant,google,ChIJP29JWW1LwokRHeTXY1JWvsw
Ho Wok,40.559483,-74.164391,4.0,126,2.0,restaurant,google,ChIJX6MK0qNLwokRyu4WbBxZWdc
Roppongi Robata & Sushi,40.5595433,-74.1643422,4.8,130,2.0,restaurant,google,ChIJDXDbX1BLwokRxaRzW7sk3RM
Elverton Bagels & Deli,40.5623142,-74.15717599999999,3.4,38,,restaurant,google,ChIJLdZs0JdLwokRJnVdlOS33sw
Domenico's Pizzeria,40.56101,-74.135381,4.5,181,2.0,restaurant,google,ChIJtXfle-hLwokRdZpOw4scVqo
Supreme Memorials,40.5599083,-74.1349406,3.7,3,,restaurant,google,ChIJsxRr6OdLwokRekeuAdJ5mpE
Dunkin',40.56089,-74.1351178,3.3,275,1.0,restaurant,google,ChIJkalQpONLwokR4I9wNibU8NA
Alfonso's Cantina,40.5611624,-74.1356948,4.4,91,2.0,restaurant,google,ChIJpYOnMq1LwokRPm_Dy6Vhydc
Oakwood Diner,40.5640547,-74.13292489999999,4.3,625,2.0,restaurant,google,ChIJO5H_KuRLwokRAafLsH4FqRg
Subway,40.5645129,-74.12802549999999,3.8,65,1.0,restaurant,google,ChIJZ4GZo-NLwokRPI_LnLrvz0E
Starbucks,40.5639306,-74.1326704,3.8,27,,restaurant,google,ChIJ6ThH2URLwokRySd--BzpLlc
Ambrosino's,40.56421710000001,-74.1334468,4.0,90,1.0,restaurant,google,ChIJxYBSi-NLwokRNFXCqZYazS4
La Rosa Chicken & Grill Restaurant - Guyon Avenue,40.5645876,-74.12808729999999,4.1,119,1.0,restaurant,google,ChIJR3-KesVLwokR4ohs4yMA7fs
Canlon's,40.5651788,-74.1268568,4.6,467,2.0,restaurant,google,ChIJi8yV_-JLwokRjQFcQceii04
Taste of China,40.5645648,-74.12784649999999,4.5,150,,restaurant,google,ChIJJTW1t-xLwokR1S7ZGru3C1g
Justinos Pizza,40.564994,-74.127704,3.8,89,2.0,restaurant,google,ChIJuXUTHi9LwokRMupP47Cz5cM
Pardon My Cheesesteak,40.5649366,-74.1273063,1.8,5,2.0,restaurant,google,ChIJIXNOc0RLwokRZyFYEi_gFgI
Grilled Cheese Society,40.5649366,-74.1273063,1.0,3,2.0,restaurant,google,ChIJFw0XoSFLwokRcKZgDqyWWl4
Starbucks,40.56381,-74.11529999999999,2.2,62,,restaurant,google,ChIJa9l5ZfdJwokRDzDQldM7DPc
QDOBA Mexican Eats,40.5644249,-74.114203,4.5,185,1.0,restaurant,google,ChIJc8y0mQdJwokRoMgKqel7BUU
Empire East,40.56465310000001,-74.1138074,3.7,347,2.0,restaurant,google,ChIJizVKdlBJwokRHPEgmQx29v8
Jersey Mike's Subs,40.5654202,-74.112993,4.0,330,1.0,restaurant,google,ChIJS00oplpJwokRI26FLg6gpSg
Talay,40.5618536,-74.10927459999999,,0,,restaurant,google,ChIJUZyhRABJwokRc2bm29a09S0
Siam Thai Eatery Staten Island,40.5653972,-74.11021149999999,4.4,400,2.0,restaurant,google,ChIJG4MbZZVJwokRV5L2TNVrCCE
Dunkin',40.5656608,-74.1127798,3.9,124,1.0,restaurant,google,ChIJqxzCcy5JwokRiNPaBUQzo7k
Tropical Smoothie Cafe,40.56577009999999,-74.10990009999999,4.2,168,1.0,restaurant,google,ChIJvSTuDx5JwokRq2Fig33OZXY
Wendy's,40.5653254,-74.1143881,2.8,54,1.0,restaurant,google,ChIJwZt6fwBJwokRGn0y52SY6HM
New China Hibachi & Sushi Buffet,40.5659573,-74.1092829,4.1,1765,1.0,restaurant,google,ChIJO5T30YFJwokRU3kuEZZVQ-c
Menchie's,40.56612370000001,-74.1105731,4.6,153,1.0,restaurant,google,ChIJw1Je609JwokRpcXTLNbXupg
Hawaii Poke Bowl II,40.5661554,-74.11054039999999,3.9,62,2.0,restaurant,google,ChIJOWOSx5hJwokRL2c3KHQHZt4
On A Roll,40.5661731,-74.1104342,4.5,379,1.0,restaurant,google,ChIJk4uOk-VJwokRPVYk4a-dnxA
Dunkin',40.5662098,-74.1127097,3.8,50,1.0,restaurant,google,ChIJ6QoBfF1JwokRQvazuBFw0Oo
Patrizia's Taverna,40.5663152,-74.1099527,4.3,176,2.0,restaurant,google,ChIJS7R9DdxJwokRUclinYo_2sw
J&V Halal Food Gyro & Chicken Over Rice,40.56611299999999,-74.1135812,4.8,114,,restaurant,google,ChIJj9zc6khJwokRzyqXzvXH4ls
Flying Guillotine,40.5663552,-74.1099291,4.5,47,,restaurant,google,ChIJAWO5hhFJwokRmJqMkpOmbuA
Alamo Drafthouse Cinema Staten Island,40.56642350000001,-74.1099674,4.2,727,,restaurant,google,ChIJh8Zjhh9JwokRYB1K472HTbQ
Greek Xpress,40.56646559999999,-74.1102195,4.4,105,1.0,restaurant,google,ChIJs0vB_UBJwokRnFO_sqLxu-c
Panera Bread,40.5664749,-74.1100234,3.2,189,2.0,restaurant,google,ChIJfctsX2VJwokRO70PzhqmiXU
Boulevard Lounge,40.5664862,-74.1101904,4.8,56,,restaurant,google,ChIJT4aV4VhJwokRxEXRuLlro7w
Sea Bar,40.5664947,-74.1101532,4.7,255,2.0,restaurant,google,ChIJrzlT8E9JwokRspP_AEGIqSs
Applebee's Grill + Bar,40.5671674,-74.11105280000001,4.4,422,2.0,restaurant,google,ChIJ6aDllslJwokRlq_KJ1EImko
"Patrizia's Pizza, Pasta & Panini",40.5671787,-74.11095379999999,4.3,18,,restaurant,google,ChIJRxML7D1JwokR9uUKQSr9GLk
Kennedy's,40.5613793,-73.920946,4.5,784,3.0,restaurant,google,ChIJf2SWkrRDwokR_JT_AeuEQEM
Dugout,40.5592915,-73.91977969999999,3.9,15,,restaurant,google,ChIJN8YZbe9DwokRzOfzluksFoo
Blarney Castle,40.5613144,-73.9121608,4.4,69,,restaurant,google,ChIJYS8doUtCwokRYEs3oC4fPNU
The Bayhouse of Breezy Point,40.5647335,-73.9116185,4.2,233,2.0,restaurant,google,ChIJf2SWkrRDwokR9AJu_NNcgzg
Pizza on the Point,40.5613362,-73.91182739999999,4.0,65,2.0,restaurant,google,ChIJ9WHIk0RDwokRepvvClAy9Ss
Silver Gull Beach Club,40.55764449999999,-73.9024007,4.2,143,,restaurant,google,ChIJT1VVVcJDwokR59gkDEDDjio
Jade Island,40.5759757,-74.1682357,4.3,904,2.0,restaurant,google,ChIJb4WRHYNLwokR465vNzRW3OM
Miller's Ale House,40.5751294,-74.1693842,4.2,2276,2.0,restaurant,google,ChIJH-x7i4JLwokRbsgP4Y3vQF8
Pizza Hut Express,40.5748227,-74.1671221,3.3,110,1.0,restaurant,google,ChIJWbbEE4NLwokRGoYll_juPyM
flipside Griddle,40.5748538,-74.1667504,5.0,22,,restaurant,google,ChIJ8Zg-4D1LwokRBtvkUI9WGqU
Casa Verde Restaurant,40.5732187,-74.1365732,4.6,354,2.0,restaurant,google,ChIJ1-OrIoJLwokR_i4HunJOIpE
La Fontana,40.568237,-74.12644499999999,4.3,380,2.0,restaurant,google,ChIJkezEJP1LwokRwR78H95n5_0
La Strada,40.5738889,-74.1155556,4.5,507,2.0,restaurant,google,ChIJRU83BFNJwokRz3CQN9GZykQ
Pizzeria Giove,40.5720845,-74.113124,4.5,537,2.0,restaurant,google,ChIJTVnfcVJJwokRanxhOiUrj64
Frutas locas & ice cream,40.5734799,-74.1165978,4.0,41,,restaurant,google,ChIJ-3dldVNJwokRbE5VoDgxG54
Cafe Con Pan,40.57377069999999,-74.1163037,3.8,265,2.0,restaurant,google,ChIJSbPAC1NJwokR_KSFvZB1Kac
Cantina Mexicana,40.5737022,-74.1160633,4.5,455,2.0,restaurant,google,ChIJX3C6CVNJwokRfAtW-95rEn4
Chipotle Mexican Grill,40.5678977,-74.11147009999999,3.8,863,1.0,restaurant,google,ChIJD-TeKlBJwokRgBBxsEWdMFA
Piece-A-Cake,40.57344539999999,-74.1148101,4.4,795,2.0,restaurant,google,ChIJBVI4_1JJwokRq1NHfBpzVTg
Fresh Tortillas & Tacos,40.5717458,-74.11233659999999,4.2,404,1.0,restaurant,google,ChIJ18uCik1JwokRwhPR_6bvV_w
Nori sushi,40.57385419999999,-74.1176297,4.2,133,2.0,restaurant,google,ChIJseYmeFNJwokRr6QLshEWfeQ
Brioso,40.573037,-74.115113,4.3,374,3.0,restaurant,google,ChIJE6ZeU1JJwokRA87myOkZKro
Hylan Diner,40.5691155,-74.11168339999999,4.1,1475,2.0,restaurant,google,ChIJb1LyFk5JwokR8JbhQEAy3ro
Trackside Bar & Grill,40.57364800000001,-74.11764000000001,4.5,314,2.0,restaurant,google,ChIJD6vqclNJwokRmgklIwEEzJ0
Valducci's Pizza Two,40.567288,-74.1125718,3.2,21,2.0,restaurant,google,ChIJNeD9IpdJwokRi2P3ef3-QO4
Plaza Pizza,40.5734799,-74.11673549999999,4.4,134,2.0,restaurant,google,ChIJfSjUoVNJwokRFbOOCnRgfbc
Pho Rainbow,40.5735912,-74.1164946,4.5,426,1.0,restaurant,google,ChIJ3z5wClNJwokRLWUeY2xZXrI
Tlalix deli,40.573732,-74.11638099999999,4.0,29,,restaurant,google,ChIJ7ao90SZJwokRFG-63nxohD8
Domino's Pizza,40.5730848,-74.1152323,3.3,89,1.0,restaurant,google,ChIJXWWbrUVJwokRq0bm1l5zTx8
New Dorp Halal Station,40.5737147,-74.1162475,5.0,10,,restaurant,google,ChIJFeZB-25JwokR_0PFmCPXOYc
Smoke shop & Tobacco,40.5737567,-74.1161989,4.4,35,,restaurant,google,ChIJqep-CVNJwokRYHYinSVjpp4
Ho'Brah,40.5741357,-74.1169512,4.5,443,2.0,restaurant,google,ChIJmd6UKNlJwokRYgZXj7I5tXs
Taste of India II,40.572234,-74.11260899999999,4.4,661,2.0,restaurant,google,ChIJ1_AfcVJJwokRqIHq3OuJwow
Avanti's Pizzeria,40.5732692,-74.1152226,4.2,197,2.0,restaurant,google,ChIJ-7U-MdBJwokRLySduaoP9ck
Pho 60 南北越 Staten Island,40.56790780000001,-74.11147059999999,4.2,190,2.0,restaurant,google,ChIJexuW2XZJwokRiZAUrtyHhNU
Taste of Vietnam,40.56788969999999,-74.1113377,3.8,28,,restaurant,google,ChIJXRl6u1ZJwokRQbadALHZ4dM
China Wok Staten Island,40.5754611,-74.1198095,3.9,100,,restaurant,google,ChIJSWYkxlRJwokR1OQhPiQ9lVk
Fresh Twist,40.5754265,-74.11973739999999,4.6,247,,restaurant,google,ChIJz4JlXFJJwokRAfa2qv8eAIM
Hi Sushi ( 小鱼号 酸菜鱼 ）,40.5720845,-74.113124,4.7,58,1.0,restaurant,google,ChIJQUhTjpRJwokRziuhioo7iiQ
Lucky199,40.5730259,-74.1140011,4.9,79,,restaurant,google,ChIJy5vnMAFJwokROEbMdiYwr7o
Staten Island MR. BBQ,40.5717648,-74.1125947,4.1,111,1.0,restaurant,google,ChIJLbIfyspJwokRW7z6HsHCGrQ
Schuan Kitchen 山川小馆,40.5717132,-74.1125029,4.9,20,,restaurant,google,ChIJT1Dk5LVJwokR1LcTyGZK_aw
Wingstop,40.5673171,-74.1107883,3.0,75,2.0,restaurant,google,ChIJiQAb4epJwokRnUFKeY50aHk
Hook & Reel Cajun Seafood & Bar,40.5678213,-74.11078979999999,4.5,2085,2.0,restaurant,google,ChIJg2ixNU5JwokRWSLd0mqqcFU
Kitchen New Dorp 古井烧腊坊,40.5713453,-74.1118147,5.0,2,,restaurant,google,ChIJ4YL4AfBJwokRInyDjw2W6Sk
Prince Tea House New Dorp,40.5713453,-74.1118147,4.7,345,2.0,restaurant,google,ChIJYT8pJoNJwokRaA20133fdc4
Starbucks,40.56961,-74.10964,4.0,603,2.0,restaurant,google,ChIJB9nLZE5JwokRUfHjOVslD94
Better Gourmet Health Kitchen,40.57413649999999,-74.1065802,4.2,210,2.0,restaurant,google,ChIJ6w_wqUxJwokRgZac1hsj33c
Pronto Pizza Pasta,40.57136059999999,-74.11116679999999,3.7,324,1.0,restaurant,google,ChIJGTiP7E1JwokRFIWw3hyzkpU
Harvest Cafe,40.56588429999999,-74.101078,4.7,291,1.0,restaurant,google,ChIJuWekL0hJwokRrx2XEx2c7k8
Dunkin',40.572147,-74.108648,4.0,373,1.0,restaurant,google,ChIJ9e_5WUxJwokRRDqqiM0hytU
7-Eleven,40.5709549,-74.1100024,3.6,55,1.0,restaurant,google,ChIJCRrg0U1JwokRCE0sVIyor7c
Makoto Revolving Sushi Bar,40.5696998,-74.10960589999999,5.0,1,,restaurant,google,ChIJMfUhHwBJwokRZaKxysi4d-k
Wonder New Dorp,40.5696998,-74.10960589999999,3.9,57,,restaurant,google,ChIJN4YVOABJwokRMKLZIbilfWE
Shake Shack Hylan Boulevard,40.5696998,-74.10960589999999,2.7,7,,restaurant,google,ChIJdXFWxE9JwokRkLLo_eQYLqw
Pho Today Staten Island,40.5696998,-74.10960589999999,4.3,89,,restaurant,google,ChIJIwEzhapJwokRlInQsN_58aM
Teriyaki One Japanese Grill (Teriyaki & Sushi),40.5698607,-74.1095206,3.9,59,1.0,restaurant,google,ChIJpbVC6QlJwokRb26HMEkiBiQ
Popeyes Louisiana Kitchen,40.5699281,-74.1093903,4.0,947,1.0,restaurant,google,ChIJQ4GUGAZJwokRfGzi4iKMZpI
New Dorp food cart,40.570039,-74.1094644,4.9,43,1.0,restaurant,google,ChIJW8csY-xJwokRXhDt8rtTyus
Bravo Pizza & Sports Bar,40.570125,-74.1086857,4.5,466,1.0,restaurant,google,ChIJJcr1m-5JwokRR2RzeT324bU
Precious Island Tea Shop,40.570706,-74.1104278,4.1,637,2.0,restaurant,google,ChIJhStz3E1JwokR4ysd7dtsqiQ
Seabass Taverna,40.5709801,-74.1103009,4.8,253,1.0,restaurant,google,ChIJKapPRABJwokRJ18rAUVeCw4
98K Fried Chicken & Sandwich (Staten Island）,40.5710808,-74.1106556,4.5,128,2.0,restaurant,google,ChIJaS1T1PJJwokR5w2DNANbNJo
Taco Bell,40.5709872,-74.10966909999999,3.6,228,1.0,restaurant,google,ChIJaXRhRwBJwokRRhlQPkupckU
Home Frite,40.5711517,-74.1115396,4.9,168,,restaurant,google,ChIJufE88VtJwokReRV69nFMV_4
Ten Seconds Yunnan Rice Noodle,40.5714422,-74.1111265,3.8,48,2.0,restaurant,google,ChIJR8WtRwBJwokR-Z2iBOPzhag
Lilya's Restaurant & Grill Cafe Gourmand,40.57203729999999,-74.0951607,4.6,377,2.0,restaurant,google,ChIJK8bBozRJwokRNy88hNFUgFA
Ariellas Restaurant,40.5655684,-74.100332,4.9,126,,restaurant,google,ChIJ0b4ayA5JwokRbZmLk07vS9s
Kali Cooks NYC Food Truck,40.56210189999999,-74.1000521,5.0,35,,restaurant,google,ChIJ3S3vcABJwokRgVeiNjaZD2s
Amalfi Coast Pizzeria and Restaurant Inc,40.5721968,-74.0933692,4.5,71,2.0,restaurant,google,ChIJqZqEiAZJwokRJigwzZYbIq4
Arka Mediterranean,40.5711266,-74.0915153,5.0,79,,restaurant,google,ChIJCxl5HQBJwokR3hOtKdKQLyk
Corner Caffe,40.5711299,-74.091494,5.0,1,,restaurant,google,ChIJAwU4MQBJwokRABBNCf2dUpY
New Everybody's Kitchen,40.57252820000001,-74.0928067,3.9,106,,restaurant,google,ChIJ7_nCMzNJwokRs9NVVLP8Xxg
Ronnie's Sandwich Shoppe,40.57451069999999,-74.1051669,4.7,206,1.0,restaurant,google,ChIJJ8DrtLROwokR5zRRAxIq4_E
Ya Ya Roasted,40.5727139,-74.1080523,4.1,110,2.0,restaurant,google,ChIJTbOWWQBJwokReH6Cw6q-gbM
Tacos Brothers Truck,40.5727869,-74.1079803,3.6,8,2.0,restaurant,google,ChIJOXN3o_ZJwokRsL7y0-qXfyo
Muzi Sushi,40.57431200000001,-74.10647,4.9,84,,restaurant,google,ChIJoz2w6qVJwokRI72vvMvVps4
Breezy Dogs Food Truck,40.5674424,-73.8833319,4.4,10,,restaurant,google,ChIJq6oeLPpDwokRSitslAzLvzw
Shanty's,40.56538860000001,-73.8765003,3.7,3,,restaurant,google,ChIJdfNpTeZDwokRL56hpBZL7lg
Good Dog BBQ,40.56538860000001,-73.8765003,,0,,restaurant,google,ChIJKRo5YXZDwokRhC2sqwMIzBM
Space Burgers,40.56538860000001,-73.8765003,3.8,18,,restaurant,google,ChIJ4YOA7PdDwokRGG-XqR695dc
Riis Beach Bar & Concessions,40.56543849999999,-73.87645959999999,4.7,33,,restaurant,google,ChIJaeDU0kBDwokR1ZtR7BEiv2k
Spectro,40.5673021,-73.8666253,4.4,17,,restaurant,google,ChIJKXRWQx9DwokRmF3duJy5tNE
Five Guys,40.576471,-74.1692107,4.2,774,2.0,restaurant,google,ChIJq1gKk4FLwokRD19kUMi3Zxg
Burger King,40.5818365,-74.1668675,3.5,101,1.0,restaurant,google,ChIJN1BTs4FLwokRoOyurmopLk0
Panera Bread,40.578223,-74.164086,3.8,705,2.0,restaurant,google,ChIJjdsvDYdLwokRfk6GhNTIugs
Outback Steakhouse,40.5786977,-74.1639418,4.4,2721,2.0,restaurant,google,ChIJ1To1H4RLwokR9hPU4RJcQdo
Crepes Du Nord,40.582398,-74.166055,4.1,30,,restaurant,google,ChIJ76CWpIBLwokRqoJ1nJwnHWU
Angelina's Kitchen,40.5785122,-74.1640273,4.3,890,2.0,restaurant,google,ChIJBcy5u4ZLwokRRl0zqhF1xlg
Sarku Japan,40.5813374,-74.1666003,3.0,96,1.0,restaurant,google,ChIJq_6BwoBLwokRnymcVeyTLpQ
Applebee's Grill + Bar,40.5811685,-74.1647613,4.1,1125,2.0,restaurant,google,ChIJXX8Gz4BLwokREgxJlLs1tlU
Charleys Cheesesteaks,40.5817771,-74.1670944,4.1,99,1.0,restaurant,google,ChIJTbSProBLwokRJ1D4d1wGpdA
Green Leaf's & Bananas,40.5817771,-74.1670944,1.8,18,,restaurant,google,ChIJo_sQtoBLwokRz8x8CljC39Q
Bananas Smoothies And Frozen Yogurt,40.5814795,-74.1649511,3.8,27,,restaurant,google,ChIJ7c0NNYdLwokR8MuDa6qLNWA
Red Mango,40.5815,-74.164577,4.3,43,2.0,restaurant,google,ChIJ__L7K3xMwokRIuS_wjRH-vM
East Pacific,40.58232690000001,-74.1652138,4.0,530,2.0,restaurant,google,ChIJryiJtIBLwokRwmG-FynYcOM
Starbucks,40.58161,-74.16642999999999,3.9,291,2.0,restaurant,google,ChIJ01vm2YBLwokRHXP2dkpkkps
Dunkin',40.5766138,-74.1671496,3.0,33,1.0,restaurant,google,ChIJf1EyQT5LwokR8htQdO507dY
Gino's Villa Monte Pizzeria,40.5760054,-74.1645143,4.2,792,2.0,restaurant,google,ChIJN8YSjYFLwokRzBgc4zMHaPQ
Jersey Mike's Subs,40.57623,-74.164444,4.1,273,1.0,restaurant,google,ChIJMQB8YUFLwokRGY1Sqg83jNU
Tommys Tavern + Tap,40.58107469999999,-74.1672909,4.4,1809,2.0,restaurant,google,ChIJWdknFsRLwokR1jq88T0Mr7U
Master Wok,40.5812781,-74.1664057,3.2,52,,restaurant,google,ChIJ3S0bw4BLwokRCjSVMi6Go6w
Melt Shop,40.5813473,-74.16663129999999,3.7,41,1.0,restaurant,google,ChIJD4ICJPBLwokRjiyBjd5c3I4
Chipotle Mexican Grill,40.5816193,-74.167749,3.6,784,1.0,restaurant,google,ChIJ3d-B2UtLwokRdleD9mvwgwQ
Poke Island & Grill,40.5811685,-74.1647613,4.2,102,1.0,restaurant,google,ChIJJ-4c3x5LwokRP6Lf0tMHSy0
The Mighty Crab (Staten Island),40.5810619,-74.16447819999999,4.6,513,2.0,restaurant,google,ChIJRdM2SQ9LwokR7qF87g9m_0k
Shake Shack Staten Island Mall - New Springville,40.58170610000001,-74.1677084,4.3,1126,2.0,restaurant,google,ChIJn25no-xNwokR00QXyWQGSvU
Taco Bell,40.5811992,-74.1647675,2.7,43,1.0,restaurant,google,ChIJCdX6M4dLwokRQxA89plmhr8
Piattino Oven Fired Pizza,40.5817771,-74.1670944,1.6,12,,restaurant,google,ChIJ4fNR6hdLwokRI1mJdBRh7Xo
Dunkin',40.5817771,-74.1670944,2.1,40,1.0,restaurant,google,ChIJL0OcGblNwokR6PG1r2DOPdI
Kong Dog Staten Island,40.58210589999999,-74.1667879,4.2,14,,restaurant,google,ChIJy4hSkFNLwokRvei0ErCRM-4
Bistro Thai,40.5821079,-74.1666012,3.4,48,2.0,restaurant,google,ChIJvwCyw_NLwokRcGl74ER_KBM
Popeyes Louisiana Kitchen,40.5821569,-74.1667605,3.0,185,1.0,restaurant,google,ChIJmazxBlRLwokRUWhOWBuFrao
Dave & Buster's Staten Island,40.5822964,-74.1669045,4.2,2901,2.0,restaurant,google,ChIJ3Udy9oBLwokR6-QAgmp_BOw
Chick-fil-A,40.5824306,-74.16650349999999,4.2,636,1.0,restaurant,google,ChIJ-aHijsBLwokRI8fuW9aVaGk
滋味馆,40.582413,-74.165352,3.8,4,2.0,restaurant,google,ChIJ8eBIy6RLwokRU_TG74Icjf0
Krispy Kreme,40.58276540000001,-74.1684568,3.9,456,1.0,restaurant,google,ChIJ-RwIsNRLwokRM1GRwuIffvo
MAELS Snack Sale,40.58194599999999,-74.1595165,,0,,restaurant,google,ChIJ71-xbwBNwokR1XSu_9LyLME
Gourmet Chef,40.5754621,-74.1279354,4.0,48,,restaurant,google,ChIJKe2uHP9LwokR15jjvIHCVb0
Pizza Mia,40.5754907,-74.1278914,4.5,55,2.0,restaurant,google,ChIJhRCyuW5LwokRed1PS8JlkMs
Fushimi,40.5814833,-74.11132309999999,4.3,652,3.0,restaurant,google,ChIJl_d7wrFOwokR4y6cD5qRkrg
Inca's Grill Peruvian Kitchen,40.5789497,-74.1084346,4.3,648,2.0,restaurant,google,ChIJP8jRfPtOwokRSr4hxZQYmVE
Violette's,40.5753962,-74.10512039999999,4.2,954,3.0,restaurant,google,ChIJPzucvrROwokR7y7Tqa-Eul0
Papa Johns Pizza,40.5775126,-74.1033521,3.1,216,1.0,restaurant,google,ChIJeTtgs7VOwokRkO1cO41Abhs
New Panda Garden,40.5790354,-74.1082677,4.0,68,1.0,restaurant,google,ChIJEYd6w7NOwokR3HVS2_uP058
White Castle,40.5764055,-74.104229,4.0,1349,1.0,restaurant,google,ChIJE4z--bROwokRS_1me6w3Hik
McDonald's,40.577487,-74.1021178,3.5,2115,1.0,restaurant,google,ChIJJ-m5wLVOwokRTH5UWxFTE-8
7-Eleven,40.5799624,-74.1089241,3.8,36,1.0,restaurant,google,ChIJndvm1LNOwokR21y2Th0k2uo
California Cafe Mexican Restaurant,40.57901859999999,-74.1082194,3.4,16,,restaurant,google,ChIJy49qlwxPwokR6v6vRTfC3KI
Napoli Pizza,40.5798295,-74.1093209,4.9,58,2.0,restaurant,google,ChIJCwpSIwBPwokRcEwh7DNvhsI
Rustic Pizza & Pasteria,40.57984579999999,-74.1093424,,0,,restaurant,google,ChIJyeDRKrJOwokRl2jauup1JXA
SIU KITCHEN (Hotpot),40.5715399,-74.1113314,4.5,151,1.0,restaurant,google,ChIJJ6K47-tJwokRKWJrdzP9Uoc
PokeBowl Station -New Dorp Lane,40.57153760000001,-74.11137169999999,4.3,127,1.0,restaurant,google,ChIJl6sl9h5JwokRqqx4FTXT-Vk
Panino Rustico Staten Island,40.5812078,-74.1117988,4.5,282,1.0,restaurant,google,ChIJk20O5LFOwokRw7R8-WLHeDU
Baya Bar - Acai & Smoothie Shop,40.581362,-74.111479,4.4,159,2.0,restaurant,google,ChIJcQbwkkxJwokRV8eycT68zvw
Metropane Cafe,40.581458,-74.1113683,,0,,restaurant,google,ChIJl_d7wrFOwokRocbGJqkhTxA
Chickngo,40.5757411,-74.1039311,4.8,392,1.0,restaurant,google,ChIJmw9XDERPwokRRhkCGNw1_IA
Bonchon Staten Island - Hylan Blvd,40.57681259999999,-74.10387690000002,4.4,678,2.0,restaurant,google,ChIJAWB4IplPwokRTv6D5ws4zag
Dumpling Town 印象沙县,40.5759656,-74.10365159999999,4.1,89,2.0,restaurant,google,ChIJQW35EKBPwokRDV022138uLE
Cafe Bella Vita Italian Restaurant,40.5829796,-74.0967304,4.5,573,2.0,restaurant,google,ChIJa0ukg8hOwokRWNCI0Y4Hfg8
Lorenzo's Pizza of New York,40.58279019999999,-74.09602,3.9,163,1.0,restaurant,google,ChIJt4Vin8hOwokRFnM_6hiv_aU
Alba,40.58317830000001,-74.0952882,4.5,322,1.0,restaurant,google,ChIJfyBhA8ZOwokRvVTFdwalOlA
Skippy's,40.582162,-74.0970952,4.9,112,,restaurant,google,ChIJp85sjMhOwokRGe5N2W4g8JY
Not Just Bagels,40.58279019999999,-74.09602,4.0,617,2.0,restaurant,google,ChIJe1fsochOwokRLhflhAIHQx0
"The Colonnade Diner, Restaurant & Catering",40.5811371,-74.0988581,4.2,1273,2.0,restaurant,google,ChIJ5Uh5SshOwokRzDO_GIHhjF8
Lobster House Joe's,40.5829195,-74.09565359999999,4.2,744,2.0,restaurant,google,ChIJEd_5HcZOwokRQbKaW3W1eOY
Square of Dongan Hills,40.58317830000001,-74.0952882,4.5,105,,restaurant,google,ChIJfyBhA8ZOwokRxFFOPPN6ib8
G Yummy Inc,40.5838085,-74.0946371,,0,,restaurant,google,ChIJbWH1CcZOwokRLkQPYtpM4m0
Mic E deez,40.5774734,-74.10212469999999,,0,,restaurant,google,ChIJnUFmPwBPwokR1vnBa-t8xR4
Pizza Kitchen,40.57618489999999,-74.10333779999999,4.4,209,1.0,restaurant,google,ChIJE-SNRdxJwokRJ76ZyvpUJ6Q
Naz's Halal Food - Staten Island,40.57608329999999,-74.1033722,4.1,395,1.0,restaurant,google,ChIJg5rwn_RPwokRpiQOAPnR6F4
Tex's Chicken & Burgers,40.5762969,-74.1033827,4.3,72,,restaurant,google,ChIJfWmiA3JPwokRoO9I8DZR9OQ
Crepe Stop,40.5759784,-74.1035213,4.4,147,1.0,restaurant,google,ChIJrXyBiftPwokR3SzDsPIlcnY
Apna Pizza Burger & Hot Chicken,40.5790549,-74.10149779999999,4.6,42,,restaurant,google,ChIJ098MfwBPwokRJ7KV1E9busw
Nick's Asian Food & Deli,40.5791811,-74.1015714,,0,,restaurant,google,ChIJGdasDrZOwokR1oiKOlrVuoc
El Dorado Restaurant Bar&Grill,40.5804035,-74.09889710000002,4.0,215,2.0,restaurant,google,ChIJo-VOVFpPwokRw9q5pUd2hsU
Ayat Staten Island,40.5807251,-74.0985887,4.6,711,2.0,restaurant,google,ChIJESDr4gRPwokRXHaFj_J23Yw
Hip Wo,40.58109890000001,-74.0979509,3.9,96,,restaurant,google,ChIJRcXWU8hOwokRbzxZTHWgWCw
Zara Cafe Grill,40.58152159999999,-74.09847789999999,4.3,1517,2.0,restaurant,google,ChIJb8GDT8hOwokRWnkFORBmf_I
Round Pie Pizza Company,40.5829373,-74.0966914,4.2,138,,restaurant,google,ChIJdfEznchOwokRgkyudRwTQdU
Avocado Sushi,40.58304100000001,-74.096988,4.2,313,2.0,restaurant,google,ChIJkVCrnMhOwokRAloJ83m6Qw4
Dunkin',40.583793,-74.09469650000001,4.0,407,1.0,restaurant,google,ChIJbWH1CcZOwokRNjdWVxgGViM
Yafa Shawarma Food Truck,40.583541,-74.0858094,4.6,205,1.0,restaurant,google,ChIJ9dyYH3NPwokRrCeE0Ynf2UU
Cafetería Staten Island hospital,40.5847086,-74.086124,4.0,5,,restaurant,google,ChIJhfOXxVZPwokRyB0egnggHXA
Farmer's Fridge,40.585061,-74.08690299999999,,0,,restaurant,google,ChIJuW61sDRPwokRQH9d_qn5AsA
“Los Ceviches Del Decano”,40.5771844,-73.998519,,0,,restaurant,google,ChIJlb4TDgBFwokRZAjxc3yn5Ks
Ali Baba,40.5773793,-73.9977719,,0,,restaurant,google,ChIJPTDLCcdFwokRsE4vIfbHt9E
Oriental Palace Kitchen,40.575,-73.99694439999999,4.4,458,1.0,restaurant,google,ChIJobyFZ8ZFwokRWZih62KN73M
Popeyes Louisiana Kitchen,40.575633,-73.99729789999999,3.8,353,1.0,restaurant,google,ChIJmTj8XFhFwokRPhwXvmsajBE
Dunkin',40.5757033,-73.99717179999999,3.6,237,1.0,restaurant,google,ChIJ4fBmXMZFwokR0lfECIpTAss
Papa Johns Pizza,40.5760011,-73.9887007,3.4,222,1.0,restaurant,google,ChIJhefkFbVFwokRVGfEBa1uM9I
Crown Fried Chicken,40.5756959,-73.9944618,3.7,160,1.0,restaurant,google,ChIJ1XSDg8hFwokRgtjElGsbW48
Burger King,40.5785971,-73.9859318,3.2,367,1.0,restaurant,google,ChIJW4S1wWJDwokRpdkwWG0WUP4
S&A Pizzeria,40.57544619999999,-73.9940803,4.2,165,1.0,restaurant,google,ChIJ00yFmshFwokRIhpW8CyN7DY
Neighborhood Gourmet Food,40.5730158,-73.9952708,4.3,86,1.0,restaurant,google,ChIJu04X8sVFwokRLvJfINOJmAs
Ez Pass Grill Deli,40.57558829999999,-73.9952732,,0,,restaurant,google,ChIJ5yebJcZFwokRDjY98fEWi4Y
Panda,40.5758047,-73.9947334,3.5,41,,restaurant,google,ChIJ-SOo5bRFwokRfcH3z1pKGZY
Krispy Krunchy Chicken,40.57301710000001,-73.9958588,3.0,2,1.0,restaurant,google,ChIJDyVP8R9FwokRMkIOXjTS2r8
East Far,40.5757153,-73.9913547,3.4,157,1.0,restaurant,google,ChIJzx56qclFwokRiiBb5fjALQM
Kennedy Fried Chicken,40.57610779999999,-73.99095319999999,3.5,155,1.0,restaurant,google,ChIJ09AbpclFwokRBPuLvRZLzug
IMPERIAL GARDENS,40.574003,-73.9909415,,0,,restaurant,google,ChIJ_d63RgBFwokRaMjdcbwzk_M
Anhor Cafe,40.5788467,-73.9892929,4.6,67,2.0,restaurant,google,ChIJj_jXLCdFwokRYpskppRnn3Y
Surf Pizza & Wings halal,40.5746113,-73.9882581,3.8,84,1.0,restaurant,google,ChIJPRJEzJhFwokREzuvs65rBBg
Nathan's Famous,40.5752667,-73.9814806,4.3,15238,1.0,restaurant,google,ChIJQQaDPzVEwokRwJfPzNzyNnI
Gargiulo's,40.5765123,-73.9823861,4.4,1585,3.0,restaurant,google,ChIJJ64aUTVEwokRrJN-MEyx9xM
Footprints Cafe,40.5756615,-73.9832303,3.7,1691,2.0,restaurant,google,ChIJTUFvyspFwokR_o5rC-O9aJA
Totonno's,40.57891729999999,-73.9838232,4.1,886,2.0,restaurant,google,ChIJDb9hOrVFwokRkpRqzb71OdM
Subway,40.576352,-73.9812273,3.4,367,1.0,restaurant,google,ChIJS86ov0pEwokRjX-3RpXqiz8
Liman,40.5755665,-73.9773292,4.4,1466,3.0,restaurant,google,ChIJKRjfeXlEwokR3J4oX2oLdOk
Starbucks,40.58126,-73.98544,4.1,1108,2.0,restaurant,google,ChIJt5DcjLRFwokRyxil5Pjp3Fo
Parkview Diner,40.5834559,-73.98619959999999,4.1,3587,2.0,restaurant,google,ChIJmRo2nLNFwokR1S6PU2RkeDQ
Salt & Sizzle,40.5731737,-73.9811366,3.9,463,2.0,restaurant,google,ChIJDws-Y8tFwokRnJ87FCfTq6Y
Popeyes Louisiana Kitchen,40.5753002,-73.98031859999999,3.9,1000,1.0,restaurant,google,ChIJ84YWCzVEwokRf-LO6RSWq08
The Red Doors,40.5758151,-73.9799267,4.0,586,2.0,restaurant,google,ChIJGbsSnTVEwokRTM52qHCFvEM
IHOP,40.5757137,-73.97908439999999,4.1,3074,1.0,restaurant,google,ChIJ9cplkjVEwokRahx-OeTFTuc
Margarita Island,40.5748324,-73.9792868,4.2,398,2.0,restaurant,google,ChIJAb5DuzVEwokRbKN8ybR4bGo
Famiglia Pizzeria at Deno's Wonder Wheel Amusement Park,40.5736561,-73.9793069,2.8,26,1.0,restaurant,google,ChIJdW74RTREwokR7srg_zlac38
Surf City Pizzeria,40.5756543,-73.9778376,4.2,829,1.0,restaurant,google,ChIJgwBV5TVEwokRC8mIoUn9m24
Dunkin',40.5823761,-73.986522,3.9,49,1.0,restaurant,google,ChIJ8yyceLRFwokRVyfB8Gm4OJ4
Chipotle Mexican Grill,40.58330249999999,-73.9867755,3.7,1411,1.0,restaurant,google,ChIJT31ymrNFwokRcP15GZCm00o
Domino's Pizza,40.578902,-73.98014189999999,2.4,966,1.0,restaurant,google,ChIJ6RKwA0tEwokR0lgd0mQ8uQ8
Ruby's Bar & Grill,40.57326,-73.98013999999999,4.0,796,2.0,restaurant,google,ChIJa3PknWpEwokRP2g9em4QTPs
Dunkin',40.5758506,-73.9810514,3.7,568,1.0,restaurant,google,ChIJsflLbjVEwokRrdYxttEDxu8
Leanly,40.576841,-73.98455729999999,3.9,257,1.0,restaurant,google,ChIJhUI4qcpFwokRKeSfnrlIqLE
McDonald's,40.5771463,-73.98181500000001,3.5,1940,1.0,restaurant,google,ChIJx866qWZEwokRkO6NcAaDEuE
Tom's,40.5733333,-73.98055560000002,3.8,394,1.0,restaurant,google,ChIJyTdD8TREwokRpHqpZwrdpr8
Pizza On The Run,40.576836,-73.984608,4.3,354,1.0,restaurant,google,ChIJxTbDmMpFwokR5jAGxxQwaDw
Mi Candileja,40.57700579999999,-73.9830813,3.9,749,1.0,restaurant,google,ChIJeenJqkpEwokRpHLVPK1k24U
Coney Island Finest Deli Inc,40.5766494,-73.9835634,,0,,restaurant,google,ChIJjQYdr8pFwokR1AYvW8jIldM
Famous Rotisserie And Grill,40.5769716,-73.9835768,3.6,57,1.0,restaurant,google,ChIJiYgBqcpFwokR8OO8Sp5kyCw
"Китайски ресторант ""Известна ротисри и грил""",40.57693,-73.9835324,3.7,3,1.0,restaurant,google,ChIJ9xusqcpFwokRI9OAmUoqHXE
Coney Bakery (formerly Golden Krust),40.57661400000001,-73.983154,2.5,6,,restaurant,google,ChIJXydBUGtFwokRvU8qC6JabdU
"Milk Bee Honey Cafe 1515, LLC",40.57608080000001,-73.9828476,,0,,restaurant,google,ChIJHQyU2spFwokRFgWByAnptQk
ChowTime,40.5767934,-73.9822361,4.4,203,1.0,restaurant,google,ChIJsTMKHkNFwokRioRmn-hOxVQ
Shish kebab,40.5753655,-73.98198660000001,5.0,2,,restaurant,google,ChIJuw_tWIlFwokRqGEQ3E49lyE
Sausage Heros Hot Pizza,40.57532749999999,-73.9819469,3.0,14,,restaurant,google,ChIJYwt6OTVEwokRmKKo2iESc4I
Pizza On The Run,40.57648,-73.98166270000002,4.3,137,1.0,restaurant,google,ChIJY2lbXjVEwokRp0J9B2Efugk
Habibi Moroccan Halal Food & Smoothies,40.5763671,-73.9812513,4.8,931,1.0,restaurant,google,ChIJB5tynHVFwokR7J782jZUREQ
Dunkin' Donuts,40.57596300000001,-73.981059,4.1,18,,restaurant,google,ChIJdxEZbzVEwokRJx6JXRBpWwY
Rita's Italian Ice & Frozen Custard,40.575899,-73.980913,4.4,16,1.0,restaurant,google,ChIJ34tL1S5FwokRiupgD8-RIvw
White Castle,40.5751481,-73.9809171,3.9,215,1.0,restaurant,google,ChIJ1yM8v_lFwokRTnfmwLRsvT8
Al Cavallino Pizzeria,40.5730321,-73.9832325,3.0,2,,restaurant,google,ChIJ2dtISutFwokRH0ULv8T6KRQ
Crab House Brooklyn,40.5759385,-73.9805236,4.6,1024,,restaurant,google,ChIJS6Akdi1FwokRPzZDkOtkDbQ
Wonder Coney Island,40.57594,-73.98052,4.2,54,,restaurant,google,ChIJXXdRe9VFwokRQkWzW4AXh_g
Taqueria El Torito To Go,40.5748716,-73.98073839999999,4.9,44,,restaurant,google,ChIJDTyFxtlFwokRJipOESiKpjc
KPOT Korean BBQ & Hot Pot,40.5758648,-73.9803074,4.8,1840,2.0,restaurant,google,ChIJB47eALpFwokRMxDL4nAgUL0
Hook & Reel Cajun Seafood & Bar,40.5758648,-73.9803074,4.3,624,2.0,restaurant,google,ChIJu1zZjK9FwokRKuje01WGp3Q
Doña Zita,40.5748711,-73.9804993,4.4,464,1.0,restaurant,google,ChIJ0wvspzVEwokRNtjolnoEk2A
Paul's Daughter,40.5734626,-73.9783211,4.1,687,2.0,restaurant,google,ChIJZR42yDVEwokRML_1BjiFxCc
K & E Fast Food,40.5748854,-73.98036139999999,4.8,131,2.0,restaurant,google,ChIJ-7bOA7lFwokR1qe5Pu8DPHs
Teura Italian Restaurant,40.5758186,-73.9800874,4.8,429,2.0,restaurant,google,ChIJlwrgFKZFwokRIGsalu_jW2M
UDAR OSH,40.5769967,-73.9799481,4.7,194,1.0,restaurant,google,ChIJC9thlTxFwokRTetUX16uHUU
Royal Hall - Wedding and Banquet Hall,40.5770163,-73.9799203,4.5,58,,restaurant,google,ChIJK8qzT8FFwokRIQW_hFmfN_A
Tex’s Chicken & Burgers,40.57581819999999,-73.9798119,3.5,363,1.0,restaurant,google,ChIJqTmnoBRFwokR1Yq5c_b0bAk
Plaza Mexico NY,40.5748985,-73.9800215,1.0,1,,restaurant,google,ChIJBUPMU81FwokR0QK022FZRU8
Umi Sushi,40.5767872,-73.9667065,4.0,526,2.0,restaurant,google,ChIJRxsII0dEwokRw1GOl5DTAmg
Beyti Turkish Kebab,40.57709699999999,-73.9627189,4.3,1546,2.0,restaurant,google,ChIJm2ZjBkFEwokRFL6sFA-AVNI
Vis-a-Vis Restaurant,40.5755365,-73.9692628,4.5,692,3.0,restaurant,google,ChIJaeRukUdEwokRVbe6Tt9hYBw
Georgian House,40.576642,-73.9673329,4.4,631,2.0,restaurant,google,ChIJfaYuGkdEwokRyG1Po9H2-R8
Guest House,40.57670629999999,-73.964522,4.3,442,2.0,restaurant,google,ChIJDSpK2EBEwokRDzGDBTau3hM
Dunkin',40.5809917,-73.9662644,3.6,726,1.0,restaurant,google,ChIJrS5wbUREwokR9t7KcgZAHNU
"Rocco's Bagels, Deli & Grill",40.5765182,-73.9676046,4.3,75,1.0,restaurant,google,ChIJE3KpGkdEwokR6BpozLmrGAk
Oleandr,40.5771446,-73.9629211,4.4,230,2.0,restaurant,google,ChIJPaMlBEFEwokRBlJcTaz1d_8
MatchPoint Cafe,40.584796,-73.973787,3.7,80,2.0,restaurant,google,ChIJ7_A__05EwokRQMPgf1RG9VE
Ocean View Cafe,40.57672909999999,-73.96432519999999,4.5,1007,2.0,restaurant,google,ChIJX9DK2EBEwokRM9kDwjBVtag
Sachiko,40.57637599999999,-73.965695,4.3,278,1.0,restaurant,google,ChIJtUySMUdEwokRAOSFSBaudpE
Güllüoglu Cafe&Bakery,40.5768419,-73.965907,4.3,850,2.0,restaurant,google,ChIJ7QNJL0dEwokRLclxOeB6iEI
McDonald's,40.5795745,-73.9750772,3.5,3300,1.0,restaurant,google,ChIJx866qWZEwokRqDEZ0nKYmdY
Hangry Joe’s Hot Chicken,40.57809779999999,-73.9761554,4.8,106,1.0,restaurant,google,ChIJHWFMu1JFwokRo2_evvXNE9o
Starbucks,40.57562,-73.97748,3.7,394,2.0,restaurant,google,ChIJfaXcLExFwokRuUot5D0b4zY
Baya Bar Coney Island - Acai & Smoothie Shop,40.57886719999999,-73.97538899999999,4.7,63,,restaurant,google,ChIJbWbuSwBFwokR2iWy3aRGSOw
TaoXi Asian Cuisine,40.5756677,-73.97800620000001,4.6,117,,restaurant,google,ChIJWSOrLLVFwokRU0uQgBi3FL4
Georgian Corner,40.5790061,-73.9760505,4.6,329,2.0,restaurant,google,ChIJ45xnb1FFwokR2l10vQrn7Ug
Neptune Bowl,40.57939519999999,-73.9730065,3.7,6,2.0,restaurant,google,ChIJ9WkOu15FwokR9nZlW5mqfjc
Turkiss grill,40.5793724,-73.97271839999999,4.4,78,,restaurant,google,ChIJpZWd2ORFwokR1CzC0GCvd8E
Half Moon,40.5752827,-73.97819670000001,4.5,4,,restaurant,google,ChIJyzlPTNxFwokRETPgeIn_2HA
Flywheel Eats,40.5752827,-73.97819670000001,4.2,5,,restaurant,google,ChIJyxch7-FFwokRuPfURDb9S2Q
SteaMania,40.5756872,-73.9783427,4.7,272,2.0,restaurant,google,ChIJL3IR7jVEwokRV3cK0BChI0A
RARE Italy Restaurant Steak Lobster,40.5756872,-73.9783427,3.7,49,,restaurant,google,ChIJ91V6fIFFwokRzj0SGzmcwgY
Pep Bakehouse & Coffee Shop,40.5796215,-73.9730747,4.2,33,,restaurant,google,ChIJ6zzM539FwokRtsMDfQTicyw
Buck-it Sports Bar & Latin Grill,40.5756898,-73.978669,4.6,97,,restaurant,google,ChIJDb0pUjtFwokRIWEZ10RsitU
Munchbox21,40.5761218,-73.96927529999999,3.8,4,1.0,restaurant,google,ChIJWWJmkThFwokRAYHZSffvuGM
Sahara Turkish Grill,40.5796346,-73.9723202,4.4,400,2.0,restaurant,google,ChIJjS-oCD5FwokR87XRrB9QWb8
Coney Island House of Wings,40.5763156,-73.96923319999999,4.6,276,1.0,restaurant,google,ChIJD55pXr5FwokRBJoJjJvFq64
Mexican food and Aguas Frescas,40.5752073,-73.97891659999999,4.0,3,,restaurant,google,ChIJoY7OepxFwokRB32cxYju_74
Pumpernickel Sub's & Sandwiches,40.5752073,-73.97891659999999,1.0,1,,restaurant,google,ChIJ5zz9PehFwokRRr0mJZNLqus
Ryba Crudo,40.575206,-73.97901999999999,4.4,7,,restaurant,google,ChIJk01GLTxFwokROMfOio_9NWc
Nostimo Food Truck,40.5799104,-73.9715518,5.0,33,,restaurant,google,ChIJ0XtaQQBFwokRU4d1pbnBtrE
Beka’s shaurma,40.57992850000001,-73.9715732,5.0,27,,restaurant,google,ChIJMSBVWTpFwokR3bGZ8iC3br8
Taco Bell Cantina,40.5757984,-73.9794821,3.3,429,1.0,restaurant,google,ChIJ-QC-HCJFwokRG4YV8agTpGk
Fun foods,40.5748746,-73.9794866,,0,,restaurant,google,ChIJJ1g6VqJFwokRzfs5JoWbDCs
Best Royal Jerk Spot,40.5750107,-73.9795472,,0,,restaurant,google,ChIJAXWZozVEwokR3UuIHbhvJ0Q
Mexsalvador Restaurant,40.5747765,-73.9796562,5.0,2,,restaurant,google,ChIJDW6MpWVFwokREWf9q830zVo
Tatiana Restaurant,40.5751611,-73.9615135,3.8,1882,2.0,restaurant,google,ChIJjafDP0BEwokRfRl3S1X4P2c
7-Eleven,40.57771779999999,-73.96002419999999,3.3,98,1.0,restaurant,google,ChIJWVLN6EFEwokRpnyqGnF7gXU
Popeyes Louisiana Kitchen,40.5781453,-73.9603451,2.9,401,1.0,restaurant,google,ChIJP9Yn8EFEwokRUuCKyyw1Hqk
NY GYRO EXPRESS,40.5790257,-73.959968,4.0,281,1.0,restaurant,google,ChIJp5MrAUJEwokRs5RuyoWBt38
Luigi's Pizza,40.57850440000001,-73.958036,4.4,417,2.0,restaurant,google,ChIJM-veimlEwokRCK4d56Lr7iQ
Toné Café,40.5814765,-73.963291,4.5,673,2.0,restaurant,google,ChIJXQvKp0NEwokRDPznkAq9UUI
Juniors Pizza,40.58200240000001,-73.96092449999999,4.3,47,1.0,restaurant,google,ChIJA_lWjUJEwokRYyHFlTSWVZ8
Starbucks,40.57786000000001,-73.96113,3.6,931,2.0,restaurant,google,ChIJ7-uIlEFEwokRlbHGtjrdFtM
Palace Fried Chicken,40.5777778,-73.9616667,4.2,427,2.0,restaurant,google,ChIJj9HVmUFEwokRKfY-nifj638
New China,40.5815122,-73.9634537,4.1,112,1.0,restaurant,google,ChIJOfzjpkNEwokRSiGv-v-0xNY
Land-O-Fun,40.58417250000001,-73.95972359999999,4.0,668,,restaurant,google,ChIJVf9kV11EwokRqKWYIyHCOM8
Skovorodka,40.5779369,-73.9609804,4.2,937,2.0,restaurant,google,ChIJJZgvk0FEwokRCn07X4xc8_E
Kashkar Cafe,40.5778019,-73.9554708,4.3,1101,1.0,restaurant,google,ChIJOylZ2WtEwokReXuxLMxwlQ4
Euroasia Cafe,40.577405,-73.961286,4.3,787,1.0,restaurant,google,ChIJ3WksvEFEwokRzkOsyScJFLg
Nasheman Grill and Restaurant,40.579276,-73.95948,3.6,636,1.0,restaurant,google,ChIJ89a34mlEwokRexjlFJ7LqMg
Dunkin',40.58257,-73.95968,3.8,248,1.0,restaurant,google,ChIJXwUNn0JEwokRLPKBjziau4k
Azure Lounge Restaurant,40.5751821,-73.9626028,4.3,143,,restaurant,google,ChIJzwLrELNFwokRdvgfTw5NO4U
Breva,40.5751731,-73.9627689,4.7,313,2.0,restaurant,google,ChIJK3nUPsBFwokRqZf1xtqZtf4
Восточная Кухня Ресторан,40.5773127,-73.9621004,4.4,11,,restaurant,google,ChIJM8LUNgBFwokRYq4JzYu7UBE
Bora Bora Smoothie Cafe - Brighton Beach,40.57718269999999,-73.961744,4.8,382,,restaurant,google,ChIJl3KrF2NFwokRLDQdCPHIpi8
Sheel Mashi Grab & Go Grill - Brighton Beach,40.577239,-73.96175869999999,4.5,42,,restaurant,google,ChIJYULKXgBFwokRL4PBALeZzyg
Tacos Mi Barrios,40.5776192,-73.9622476,4.0,18,,restaurant,google,ChIJacXuYgBFwokRfmYzXHN2_B0
Angel V Distribution Corporation,40.5776518,-73.96264459999999,4.3,4,,restaurant,google,ChIJUccBC0FEwokRyeeeAAG99M0
Boardwalk Beer Garden,40.57514580000001,-73.961327,4.8,434,2.0,restaurant,google,ChIJVafZFZVFwokRqfjJAe_qWQ8
Geo Khinkali,40.5776207,-73.9632665,4.6,147,,restaurant,google,ChIJWf1DMwBFwokRP8u8-TmJW_k
Little Georgia,40.5772913,-73.9612568,4.5,447,2.0,restaurant,google,ChIJAz3-wxFFwokRhHCZPZu2EbI
Nota bene restaurant,40.57670629999999,-73.964522,4.5,360,2.0,restaurant,google,ChIJpze0SklFwokRaL2rcAXh1JY
Stop one Deli,40.5777133,-73.9619836,4.4,37,1.0,restaurant,google,ChIJSx4ay2JFwokRHyn0xVvmsZQ
Mr. pPIZZA,40.57749559999999,-73.9612685,3.8,20,,restaurant,google,ChIJU5_1QABFwokRZcukMzJG94E
Twins hot dogs,40.57746410000001,-73.964264,5.0,4,,restaurant,google,ChIJN6_aFyNFwokRJZH4HjEKsno
Genatsvale Georgian Bakery | Shawarma,40.57738519999999,-73.9644646,4.8,372,2.0,restaurant,google,ChIJIb1JFjFFwokR81mdRAeft-E
Babunya Cooks,40.5774247,-73.9646028,4.9,12,,restaurant,google,ChIJfbOwZT9FwokRbc2kvMASEZg
Dzmobis Duqani,40.57644329999999,-73.9651621,5.0,9,,restaurant,google,ChIJX-FHcQBFwokRptPd3PlxZgA
Sushi Journey,40.5774129,-73.9646459,5.0,2,,restaurant,google,ChIJo6JdgShFwokRHdwQ_BBKT0Q
Dzmobis Duqani,40.5764219,-73.96518739999999,4.7,181,2.0,restaurant,google,ChIJvRTPoHdFwokRETY7AhBaLck
Tsar Caviar,40.57717,-73.964974,5.0,283,,restaurant,google,ChIJqUgbmPRFwokRQavt4Msmf_k
Dunkin',40.5779639,-73.9609512,3.6,139,1.0,restaurant,google,ChIJa5sq3mhFwokRoZGL7TIhvKU
Meet Wise Meat,40.5765557,-73.9657113,4.2,490,2.0,restaurant,google,ChIJSTgDGAJFwokRcMtNiZq1jhs
Oldenburg Shawarma,40.5762862,-73.9658699,5.0,3,,restaurant,google,ChIJgwrlaQBFwokRyoMPcEOQ0X0
Grill Doner Kebap (GDK),40.5765113,-73.96590069999999,4.3,6,,restaurant,google,ChIJOUryAABFwokRGe_56RrW43U
German Doner Kebab,40.5764861,-73.9659315,4.5,202,1.0,restaurant,google,ChIJBTtQUvNFwokRVKBONT7xRug
Anvar’s Restaurant,40.5769235,-73.96588,4.4,151,2.0,restaurant,google,ChIJ26Qqz9NFwokRmEbxD-mtDxg
Degirmen Restaurant and Bakery,40.5764564,-73.96611539999999,4.5,179,,restaurant,google,ChIJRU7DHABFwokRfn7Zja9Xr3g
GOSHT | Restaurant | Halal Steakhouse & Burgers,40.5774367,-73.959403,4.4,2025,2.0,restaurant,google,ChIJB1TKt9dFwokR7hFl_NhDub4
Tashkent Supermarket - Brighton Beach,40.5781768,-73.9599013,4.4,4576,,restaurant,google,ChIJzfUU-0FEwokRDb5Vu6QuibA
Sammay’s Halal Food Truck,40.57822789999999,-73.9597842,4.2,23,,restaurant,google,ChIJe9L7EHdFwokRASyKevkXa_w
Toshkent Hot Dog,40.5750743,-73.96652449999999,4.5,62,,restaurant,google,ChIJF4ryfTlFwokRIwrieqrVmEo
IMERETI - GEORGIAN TRADITION INC,40.57824600000001,-73.9594453,4.6,187,,restaurant,google,ChIJWSs1TKVFwokRqnesmtJtYGU
Tasty Spot Shawarma,40.5782284,-73.9593979,4.6,17,,restaurant,google,ChIJJzVVDKBFwokRHpmvMckjMh0
Randazzo's Clam Bar,40.5839855,-73.94763400000001,4.3,2818,2.0,restaurant,google,ChIJU-MJFmVEwokRAbOSlHM0eRI
Baku Palace Restaurant,40.5841,-73.9483,4.3,1192,2.0,restaurant,google,ChIJP_S9LmVEwokRiSurUE00y9g
Asian Bay,40.585036,-73.95114989999999,4.0,201,1.0,restaurant,google,ChIJ4xUVVGREwokRHFf7Vkd8ADg
Masal Cafe & Lounge,40.5840004,-73.94916289999999,4.0,1893,2.0,restaurant,google,ChIJW_RgPGVEwokRK86Fj9uQ0kM
Seaport Buffet,40.5839195,-73.947052,4.0,2650,2.0,restaurant,google,ChIJNYTM2HpEwokRfetwZ8ARQk4
Momo Hibachi Steak House & Bar,40.5837606,-73.9493194,4.3,927,2.0,restaurant,google,ChIJ2UhHPWVEwokRD-MDlWi8E1s
Soup N Burger,40.5839,-73.9498694,3.9,2072,2.0,restaurant,google,ChIJAUHPEWVEwokRHR1up4j91No
Signature,40.583889,-73.9479522,4.2,328,2.0,restaurant,google,ChIJL4x9MmVEwokR8KZ37VNEAjc
The Bay Café,40.5828615,-73.9544253,4.7,762,2.0,restaurant,google,ChIJ3ZSKH81FwokRukZW2kJKZyE
Tenda Asian Fusion,40.58516429999999,-73.9515224,4.3,482,1.0,restaurant,google,ChIJg5TDTWREwokRexqz63GQzZE
V & S,40.583572,-73.951009,4.3,494,2.0,restaurant,google,ChIJ3SFen2VEwokRLQsTU6QKUsw
Schnitzel Fusion,40.57719619999999,-73.9525493,5.0,4,2.0,restaurant,google,ChIJvytUp05FwokRIerbBxCk7m0
LOFT by Hot Potato,40.5772248,-73.95257160000001,4.5,756,2.0,restaurant,google,ChIJqRckGmxEwokRaB3c19QfFPY
El Palenque Mexican Restaurant,40.5774189,-73.9526674,4.7,7,,restaurant,google,ChIJ0aurBYNFwokRxXxAjQpKK94
Natias bakery,40.5799239,-73.9574374,3.0,6,2.0,restaurant,google,ChIJBTXuIH1FwokRjpnEh0WXzaQ
Jimmy's Famous Heros,40.5840614,-73.95093729999999,4.6,411,2.0,restaurant,google,ChIJ4y8ppGVEwokRVtxkNYborgM
Manhattan Beach Food & Beverage,40.5769069,-73.94304509999999,3.6,11,,restaurant,google,ChIJHYZMl_xFwokR1XUIqF8E21c
Registon,40.5804581,-73.9578018,,0,,restaurant,google,ChIJUd4pNOZFwokRG5ffwhcmqPU
Jalapeño Shack,40.5788291,-73.95947269999999,4.6,138,1.0,restaurant,google,ChIJlcOduHlFwokR-BzPF-G1iKw
Omar Khayyam,40.579058,-73.959541,4.3,728,2.0,restaurant,google,ChIJrZBqs8NFwokRehjVaO7oJog
Yiasou,40.5839215,-73.9481517,4.2,474,2.0,restaurant,google,ChIJn2f0E2VEwokRv0P7A7sijqE
WOW Cafe,40.5822032,-73.9564934,4.3,448,2.0,restaurant,google,ChIJ44sdimhEwokR1WusMgrHa10
Wildberry Cake,40.5836346,-73.9510916,4.2,538,2.0,restaurant,google,ChIJgarb4sdFwokR52YQD5n-9mY
Golden Leo,40.58384900000001,-73.950915,4.5,254,,restaurant,google,ChIJ8Zw6oWVEwokRoLjGjVlR4-k
Totli Cafe,40.5798595,-73.9601339,4.4,77,,restaurant,google,ChIJpeCwF8JFwokRp797xF7c-Lo
Amberjack V,40.583579,-73.94742529999999,4.2,25,,restaurant,google,ChIJRZ29MGVEwokRwf3r1NTWRy8
WISE Bar & Grill,40.5831326,-73.9557013,4.1,1528,2.0,restaurant,google,ChIJKVsgyu1FwokRJjtJMGRb0fk
Patrizia's Of Sheepshead Bay,40.5838401,-73.9495419,4.5,940,2.0,restaurant,google,ChIJ2UhHPWVEwokR0BJF8eMs-1Q
Qugale,40.5840033,-73.9509437,4.4,216,2.0,restaurant,google,ChIJNW-Q-RpFwokREbWiuB7XrWg
Sunny House,40.58402419999999,-73.9508532,4.8,230,2.0,restaurant,google,ChIJKVABJABFwokRerR4z2-Ow1Q
Tap Beer New York,40.5841638,-73.95057659999999,4.3,743,2.0,restaurant,google,ChIJQasXC2VEwokRiP-t_p-EkMg
Next Door Restaurant,40.58389700000001,-73.9481012,4.0,343,2.0,restaurant,google,ChIJFR_OLWVEwokRjaUNttE1zxs
Peraltas Deli & Grill Food & Groceries,40.582042,-73.9586988,4.4,128,,restaurant,google,ChIJIwVGImhEwokRwvYdwYpLHBw
Trend Restaurant & Lounge,40.58403149999999,-73.9477661,4.4,42,,restaurant,google,ChIJLVfsCv5FwokRo_bTMCkoJhc
Lokum Mediterranean Restaurant and Bar,40.5839278,-73.947299,4.6,680,2.0,restaurant,google,ChIJ03zIjG1FwokR5EV8gcSurb8
Roll N Roaster,40.5841775,-73.93964199999999,4.4,5344,1.0,restaurant,google,ChIJyZn7GXlEwokR8z0rpM0kTUU
Applebee's Grill + Bar,40.5840034,-73.9432839,3.9,3073,2.0,restaurant,google,ChIJA1YNyntEwokR88-ZnoKFlbU
Opera Cafe Lounge,40.5838749,-73.944694,4.4,4522,2.0,restaurant,google,ChIJV3k7VXpEwokRL7EXkMSVFQk
Mamma Leone's Pizzeria,40.5786487,-73.93813879999999,4.2,75,1.0,restaurant,google,ChIJdUGGVHxFwokRjmwg37S7KVg
Farmer's Fridge,40.5788658,-73.9357304,,0,,restaurant,google,ChIJ40QWhslDwokRbbrcWU2MFT4
Rocca Cafe & Lounge,40.5834418,-73.94084339999999,4.1,3211,2.0,restaurant,google,ChIJ-WNqdnlEwokRWxGplgQpZ-o
Emmons Palace,40.58389260000001,-73.9442454,4.1,793,2.0,restaurant,google,ChIJ2akOU3pEwokR0uWU5kuORyw
Pico,40.57829489999999,-73.8496578,4.5,701,2.0,restaurant,google,ChIJ_5ljaIdCwokRn7JPvoY98Kk
Harbor Light Pub,40.5777869,-73.8497387,4.7,300,2.0,restaurant,google,ChIJI1Vnin1CwokRjfjKIC3stV4
Plum Tomatoes by La Sorrentina,40.57846689999999,-73.84917670000002,4.1,295,2.0,restaurant,google,ChIJ6w8_aIdCwokRt4D8qNNer4A
Panino Rustico- Baya Bar of Rockaway Beach,40.5785797,-73.8498606,4.6,24,,restaurant,google,ChIJ2Yv4hBVDwokRK4yw1ym9iL4
Baya Bar - Acai & Smoothie Shop,40.57853889999999,-73.8497696,,0,,restaurant,google,ChIJYWnnts9DwokRnmqAqxnp4nU
East Meets West,40.57853889999999,-73.8497696,3.5,14,,restaurant,google,ChIJ3wnRMgBDwokRvhPh_QIXlHo
La Sorrentina Outdoor Dining,40.5784846,-73.8493342,5.0,1,,restaurant,google,ChIJ1x3-RodCwokR5l0icUtFOXs
Pizza Panini Rolls - Wraps,40.5784849,-73.8493306,,0,,restaurant,google,ChIJd3E5aIdCwokRBv1j01tFJ0s
129 Pizza,40.5787586,-73.849338,4.5,58,1.0,restaurant,google,ChIJDQYN5qZDwokRV7rfpDxvkcs
Callie's,40.57827469999999,-73.84900590000001,4.3,129,1.0,restaurant,google,ChIJuRAGlCZDwokRNUiaCHbVxXc
Big Apple,40.5818951,-73.8366934,4.0,191,,restaurant,google,ChIJ0Ru8SClowokRyDkDHO53peQ
Dunkin',40.5825313,-73.8366503,3.7,364,1.0,restaurant,google,ChIJPRxZMClowokRbW0jv6FlKEk
Rockaway Bagels,40.5823393,-73.8371853,4.6,322,1.0,restaurant,google,ChIJw7oAFilowokRpq1qMzTbgvY
The Wharf,40.5826377,-73.8383636,4.1,1074,2.0,restaurant,google,ChIJGfuOwytowokR3Nm3TBkmmfQ
Last Stop Gourmet Shop,40.5804352,-73.8372868,4.4,290,1.0,restaurant,google,ChIJGfuOwytowokRKQsWvQPvHJk
Ciro's,40.5822536,-73.8353156,4.2,277,1.0,restaurant,google,ChIJOw31kCtowokRGiVoXpcWtRM
O'Sake,40.5810206,-73.8382115,4.6,274,2.0,restaurant,google,ChIJUa-CYilowokRpXg9PdFKPHQ
Boardwalk Bagel & Delicatessen,40.5812945,-73.8297717,4.3,591,2.0,restaurant,google,ChIJKzLY3TFowokR3QZecJVEEnk
Baya Bar - Acai & Smoothie Shop,40.578423,-73.836888,4.5,94,2.0,restaurant,google,ChIJIZsZNidpwokR71r5Tz752mQ
Anny's Restaurant,40.57893,-73.83689799999999,4.6,36,,restaurant,google,ChIJ9fZ4mI1pwokRVma7776V1xQ
The Meat Up Grill,40.5790541,-73.8370588,4.3,217,2.0,restaurant,google,ChIJxebxIldDwokRYFgOVWzMLjg
Crustinos Pizza,40.579157,-73.8370236,4.1,76,,restaurant,google,ChIJCQFRB3RpwokR_tUDk8souMg
Brisas Del Mar,40.5798386,-73.8377179,4.4,55,2.0,restaurant,google,ChIJr_7QtlVpwokRBrLN7P7KU5w
Dragon King Chinese Restaurant,40.5798966,-73.836528,3.9,55,1.0,restaurant,google,ChIJ37jtXEhpwokRD2kTSvhEN_E
E Sushi III,40.5801228,-73.8375971,4.7,113,2.0,restaurant,google,ChIJt1lZNOtpwokRY4WteoegM3Y
Rocco’s Of Roc Beach Coal Oven Pizza,40.5801181,-73.8367373,4.5,622,3.0,restaurant,google,ChIJCxUlA6JpwokR_RCAEDUydo8
Pizza D'amore,40.5801496,-73.8370727,3.8,232,2.0,restaurant,google,ChIJj5T3f65pwokR4siMO7xQ_2Y
BrazMex Cafe,40.58048039999999,-73.83791839999999,4.4,68,2.0,restaurant,google,ChIJ24XJpNJpwokRXr4U__iEMdY
Rhythms On The Rocks,40.58072589999999,-73.8343108,4.4,29,2.0,restaurant,google,ChIJGfjv1JFpwokRy4jcEHJi8Rc
Te Quiero,40.58100650000001,-73.8334897,4.1,167,1.0,restaurant,google,ChIJLW0QHKxpwokRQ-9IUBCb7TE
Tap That,40.5812315,-73.83316219999999,4.7,189,2.0,restaurant,google,ChIJM_Ox7klpwokRE7hyE7Sbo6w
Krispy Krunchy Chicken,40.5823925,-73.8346972,,0,,restaurant,google,ChIJp-9URjhpwokROl8F_Ppy4GY
Jack's Corner,40.5811056,-73.8303961,4.8,27,,restaurant,google,ChIJHfRfGSFpwokRHNFiWyr2YeI
Jase BBQ,40.5831417,-73.8344614,4.6,10,2.0,restaurant,google,ChIJj4BIIwBpwokRdHApUppc9w8
Happy Jack's Burger Bar,40.5811568,-73.8302126,4.6,253,2.0,restaurant,google,ChIJQ_IIXThpwokRp-ups9bXKiM
Margie's,40.58143219999999,-73.83008199999999,4.6,409,,restaurant,google,ChIJvzVf789pwokRiG6uAryLPN0
The Pool House,40.5815002,-73.8300876,4.8,181,,restaurant,google,ChIJu63lbl9pwokRsWFTaF4-DI0
The Rooftop at The Rockaway Hotel,40.581506,-73.830094,4.7,235,,restaurant,google,ChIJDZG9uwVpwokRaU32c9b0YHQ
Showplace Entertainment Center,40.5888821,-74.1917012,3.8,674,,restaurant,google,ChIJ1_uCAJ9MwokRaEpb7dRxjsc
Dunkin',40.5891808,-74.1942665,4.1,203,1.0,restaurant,google,ChIJzYyqh59MwokRzwHIoBqk9nk
Dario The Baker Pizzeria,40.5872467,-74.1978695,4.6,31,,restaurant,google,ChIJRTpVlXZNwokRzYtlh47SwgU
Lunch By Kim Cooks,40.5876994,-74.19695229999999,,0,,restaurant,google,ChIJO6sQ86NNwokRM0VB9lE6P_E
Nrgize,40.58785089999999,-74.191524,3.5,6,1.0,restaurant,google,ChIJdfApHUxfq1QRJlEayrKdl2A
Bar290 Bistro,40.5866792,-74.1909909,,0,,restaurant,google,ChIJgzIZKZ5MwokRr2dDxuh1wgI
Tutto L'Italiano,40.5884967,-74.1914352,,0,,restaurant,google,ChIJHS3dUp5MwokR71NbFRRt-Wk
Better Gourmet Health Kitchen,40.5923437,-74.18988089999999,4.2,156,1.0,restaurant,google,ChIJ64pCP5lMwokRbLClM_tGXm8
El Pollo,40.590665,-74.192066,4.2,783,1.0,restaurant,google,ChIJX_32I59MwokR8-qc1xwxL84
Indiyas,40.5907247,-74.1919673,,0,,restaurant,google,ChIJcbZ57GdNwokRyYX_Q4wmVfo
VEGAN 15,40.5907247,-74.1919673,,0,,restaurant,google,ChIJA0WmYuhNwokRRgCjCZLtqDk
Starbucks,40.58662,-74.16781,4.1,730,2.0,restaurant,google,ChIJ3TEo9H5MwokRXzJ1dhknM54
Popeyes Louisiana Kitchen,40.58533649999999,-74.1680964,3.7,144,2.0,restaurant,google,ChIJ7zit6oRNwokRMlDnxwWqyN8
Graffitery,40.5887052,-74.16886029999999,4.5,41,2.0,restaurant,google,ChIJIfuy8aVNwokRluVxtXJ_nFo
Subway,40.5886708,-74.1665713,3.5,83,1.0,restaurant,google,ChIJBUnCaIBLwokRS-x9ovRYeJY
Bario's,40.589666,-74.164718,3.8,548,1.0,restaurant,google,ChIJgxShg3tMwokRIRCVpvJHPAY
QDOBA Mexican Eats,40.5909256,-74.1644609,4.1,672,1.0,restaurant,google,ChIJC7DvYHxMwokRHhLR4upbBRU
Holy Schnitzel (Staten Island),40.589608,-74.16453369999999,4.4,634,2.0,restaurant,google,ChIJ8UJyhXtMwokR7H_Y3Hl3QBY
Cold Stone Creamery,40.59077149999999,-74.164526,4.0,240,2.0,restaurant,google,ChIJrc-FXXxMwokRKiw2a4x2gUA
Wendy's,40.58819690000001,-74.1669041,3.8,1255,1.0,restaurant,google,ChIJpdqNI3xMwokRstJviPLGsnU
Dynasty Taste,40.5879905,-74.16526089999999,3.9,149,2.0,restaurant,google,ChIJ6eSTAnxMwokR4rrZFlwr210
Dunkin',40.5878889,-74.1653288,3.8,227,1.0,restaurant,google,ChIJ6eSTAnxMwokRrKFZ7Ui5Zwk
Peking Taste Chinese and Thai Restaurant,40.59082459999999,-74.1647066,4.0,164,1.0,restaurant,google,ChIJ07ISXXxMwokRTyPumjSYA-o
Mr Pizza's Pasta House,40.5910843,-74.16420409999999,4.4,344,2.0,restaurant,google,ChIJ37CniXxMwokRHIqbxdoZ7x0
Home,40.5866492,-74.16519679999999,,0,,restaurant,google,ChIJldHkw2hNwokRiur4MrXvTuU
Music City Gyros,40.5879581,-74.1657163,4.6,24,2.0,restaurant,google,ChIJr1FqIMVNwokRZtw8m177SuY
Smoothie Express,40.588728,-74.166663,3.0,4,,restaurant,google,ChIJW4FNPXxMwokRsAewluc4PVw
Moon & Flower House (Staten Island),40.5899662,-74.1651952,3.9,113,1.0,restaurant,google,ChIJ26Pvl8BNwokRhJc865QOH8c
Island Kitchen Chinese Restaurant,40.5901291,-74.1652525,4.1,15,,restaurant,google,ChIJWbabTwBNwokRmBHkCaUBWv8
Dunkin',40.5908811,-74.1644527,3.2,57,1.0,restaurant,google,ChIJSYw48CRNwokRonCoQRkOyZo
Tacos Brothers Truck,40.592119,-74.1633307,3.4,29,2.0,restaurant,google,ChIJJyNlCL1NwokRSr5PRhzLVpI
Taco Bell,40.5921124,-74.16326020000001,3.8,196,1.0,restaurant,google,ChIJE88x-OpNwokRo53UsenWp4s
Dunkin',40.5869872,-74.10439079999999,4.0,201,1.0,restaurant,google,ChIJYTc7D7lOwokReFxeRf09rSE
Rustic Pizza & Pasteria,40.5865432,-74.10471869999999,4.4,245,2.0,restaurant,google,ChIJfZEdO7VPwokRF1fAUgqE_eo
Nakata,40.5873621,-74.1040056,4.2,375,2.0,restaurant,google,ChIJEyE1BblOwokRPe-fb6jNHrs
The KOVA,40.5872614,-74.10410639999999,4.5,288,2.0,restaurant,google,ChIJ_QunNadPwokRZdvXGhBeV2M
Dedem Mediterranean,40.5875151,-74.1037727,4.5,199,2.0,restaurant,google,ChIJV63SGgBPwokRioU4plJr3ZM
New Garden,40.5875151,-74.1037727,4.3,81,2.0,restaurant,google,ChIJO37YTc9PwokRqXI5i2_sbSA
Joyful Cantonese Restaurant 喜粤农家菜,40.5878599,-74.1034755,4.0,132,2.0,restaurant,google,ChIJxwtkJwBPwokR3SzlC5rObPM
Gyro King,40.5881315,-74.1032323,4.7,151,,restaurant,google,ChIJdXPbtqdPwokRhSwY9fbTrKw
Starbucks,40.588365,-74.1029468,3.6,299,2.0,restaurant,google,ChIJQ9xUHVxPwokRtUNtpu7HuyM
Torino Pizza Cafe,40.588799,-74.10177,3.9,278,1.0,restaurant,google,ChIJAQutSr9OwokRZHsk_EmRXVM
Cantina Valencia Tex-Mex & Tequila Bar,40.5890622,-74.1015135,4.4,152,2.0,restaurant,google,ChIJdyLF_ldPwokRhqVzPv2-4n4
Baci - Staten Island,40.5895993,-74.10147660000001,4.2,513,2.0,restaurant,google,ChIJ44BkkzJPwokRFYD3wJB1y28
Sakana Sushi & Hibachi Steakhouse,40.5897463,-74.1013487,4.6,425,2.0,restaurant,google,ChIJm2Od-41PwokRiSZBUff1ybI
Lee's Tavern,40.5887494,-74.0951856,4.6,1451,1.0,restaurant,google,ChIJe7mbW8FOwokRgiTPZZmsnec
Rab's Country Lanes,40.5890637,-74.08907169999999,4.6,1742,,restaurant,google,ChIJfQHAKMNOwokRlFAuJ6LKxr8
Max's Es-ca,40.591521,-74.101209,4.6,858,2.0,restaurant,google,ChIJFbaEnL9OwokRh-hurBvurSE
Tastebud's Natural Foods,40.58519200000001,-74.0939428,4.3,114,,restaurant,google,ChIJ_xVyzcVOwokRpjpmGh1s9Us
Subway,40.5860505,-74.0920414,3.5,87,1.0,restaurant,google,ChIJ9f20XcROwokRj7Vrp4K0j9E
Prime Pizza Kitchen,40.58534600000001,-74.092655,4.4,382,2.0,restaurant,google,ChIJx5koTMROwokRj_EQ8F49HQc
Wendy's,40.58828250000001,-74.0910418,4.0,1862,1.0,restaurant,google,ChIJjQ-KcsNOwokRdGHMcGAaNas
SIChinacook,40.5847738,-74.0934485,3.9,110,1.0,restaurant,google,ChIJC0XzzsVOwokRZSFAptA8XJY
Grand Sahara Mediterranean Grill,40.5845381,-74.0939739,4.4,611,2.0,restaurant,google,ChIJp8mBDeZPwokRk5px-skEt84
Campania Coal-Fired Pizza,40.5852436,-74.0937593,4.4,958,2.0,restaurant,google,ChIJLUYoUFBPwokRmIdzPI8fdrQ
Yemen Cafe & Restaurant,40.5846618,-74.0936385,4.7,290,1.0,restaurant,google,ChIJ-eezfkdPwokRUGINtYtPjco
Seaview conveience,40.5896772,-74.0986728,4.5,35,,restaurant,google,ChIJFXsN6cBOwokR39c8bRen6Dw
Bora Bora Smoothie Cafe - Staten Island Hylan Blvd,40.5847305,-74.0935528,4.5,339,2.0,restaurant,google,ChIJf4XdgUNPwokRgTMW0iNsRdM
Railroad Quickstop,40.5892107,-74.09606339999999,4.3,7,,restaurant,google,ChIJW79wQMFOwokRX-cSTvS27fg
Jac Mao,40.5858884,-74.09297029999999,4.1,503,2.0,restaurant,google,ChIJr-CsR8ROwokRis4tvjFo1Xs
FairBurger,40.589084,-74.09526699999999,,0,,restaurant,google,ChIJZ49pDQBPwokRwJBUvX70c-4
Al Aqsa Restaurant Falafel House,40.585923,-74.0922555,4.9,589,,restaurant,google,ChIJq44gFGFPwokRdXnTv9Al5a0
7-Eleven,40.5862105,-74.0919835,2.8,56,1.0,restaurant,google,ChIJ9f20XcROwokRiLUc51VAowc
Bagels on the Boulevard,40.58666540000001,-74.09172880000001,4.0,307,1.0,restaurant,google,ChIJm4b3Ee9PwokRgXq3BeZyc9g
Baiwei Chinese Restaurant,40.5867334,-74.09167409999999,4.9,17,,restaurant,google,ChIJB4YoRuJPwokR7179mDLKZB8
Ralph's Sports Bar,40.59122969999999,-74.1012157,4.7,279,2.0,restaurant,google,ChIJeVR-CMFPwokRPcjFi7io-fQ
DemiriXS mediterranean restaurant,40.58682779999999,-74.09151109999999,5.0,8,,restaurant,google,ChIJX2uvAXpPwokRJC9uqKPDGhA
Cafe Latte,40.5879809,-74.0914076,4.7,261,,restaurant,google,ChIJ_QhseMNOwokRvS40jfle_Hw
Hikaru Ramen House,40.5878302,-74.0911823,4.1,35,2.0,restaurant,google,ChIJsQV_3iVPwokRBCaE6gpLcEk
Opera Cafe Lounge,40.5881421,-74.0901643,4.6,331,2.0,restaurant,google,ChIJW7PC_etPwokRyx5NwXMp3KI
Trattoria Oliveto,40.58845969999999,-74.0900654,4.7,138,,restaurant,google,ChIJeTH_eNtPwokRbKsybZ5ySz8
Kuzina,40.5927134,-74.0867275,4.0,240,1.0,restaurant,google,ChIJBegBl-dOwokRNu3Dqeo3xaA
Cielo,40.593505,-74.087242,4.5,408,2.0,restaurant,google,ChIJ_z-3uedOwokRlM7gMZfbLRo
Tim Hortons,40.5901732,-74.0883688,4.3,964,1.0,restaurant,google,ChIJ903ENN1OwokRa6yyyuyA72I
El Patron Restaurant & Lounge 2,40.5920985,-74.0878628,3.9,209,2.0,restaurant,google,ChIJR4xVHsNPwokRBUWvFi9ZjaI
Hylan Curry & Grill,40.5922622,-74.08710649999999,4.5,148,2.0,restaurant,google,ChIJq0ek0YJPwokRilWbiet5VcU
Indian Xpress 2,40.5922622,-74.08710649999999,4.2,152,2.0,restaurant,google,ChIJdV6zeOROwokRFLJRib-mpes
1468 Hylan Cafe,40.5924093,-74.0869433,4.2,112,2.0,restaurant,google,ChIJ97NQEgBPwokRUoHBenYfBc0
San Marino Oriental Restaurant,40.5926275,-74.08749569999999,4.4,49,2.0,restaurant,google,ChIJPdvLbtpPwokRwqkxlT88Z-o
Shahzad’s halal Food,40.5931428,-74.0874654,4.7,42,,restaurant,google,ChIJxTnt8FtNwokR4a3WRhuVf_4
South Fin Grill,40.5893126,-74.0663646,3.8,523,3.0,restaurant,google,ChIJMyD2axhPwokR1ii-S0XaIWs
Cairo Cafe,40.58308150000001,-74.0751549,5.0,6,,restaurant,google,ChIJtw_1jOpPwokRxrr8B7BjxZ4
Orange Grill,40.59134199999999,-73.9919049,4.4,747,3.0,restaurant,google,ChIJN9IPA69FwokRUuHjqXQsZOA
Dunkin',40.59268379999999,-73.9970788,3.3,95,1.0,restaurant,google,ChIJPRtqtqVFwokRTaWi5TqVkQA
La Casa Bella,40.590708,-73.99139000000001,4.4,1108,2.0,restaurant,google,ChIJs2bl-K5FwokRjco28AAQMGc
China Moon Open Kitchen,40.59077279999999,-73.9914393,3.8,189,1.0,restaurant,google,ChIJsz2GVa5FwokRIpPDtZ8K87Q
Di Farina Pizzeria,40.5863185,-73.9878463,4.4,163,2.0,restaurant,google,ChIJZWfyQiRFwokRckKzqShNOUg
Empire Taco China,40.5864104,-73.987854,3.6,123,1.0,restaurant,google,ChIJu_gcFrJFwokRD2sZ9F9ZtRU
Zen Kitchen,40.5929659,-73.99797,4.7,45,2.0,restaurant,google,ChIJT_lt31xFwokR2OP6f9nRbN4
Pizza D'Amore,40.5934574,-73.99957049999999,4.1,795,2.0,restaurant,google,ChIJM8OiTKFFwokRDeXRUWgjfJo
Teriyaki One Japanese Grill (Teriyaki & Sushi),40.5934812,-73.99950679999999,4.6,446,1.0,restaurant,google,ChIJ0wACmMVFwokRrP8EeJPWBNc
Olive Garden Italian Restaurant,40.5939166,-73.9982185,4.1,2376,2.0,restaurant,google,ChIJq4F_vUhFwokRv_mESIBUW1o
Maria's Beautiful Arrangements,40.58870769999999,-73.9840601,4.8,22,,restaurant,google,ChIJa-OPO61FwokRktHBDU3fu8o
Quan Bao,40.59103349999999,-73.9835883,3.8,85,1.0,restaurant,google,ChIJiTI0uaxFwokRyjx7vWxHv4o
Memories Cafe,40.592918,-73.98811959999999,4.6,155,1.0,restaurant,google,ChIJXZeo8KtFwokRkPdaguNTpTE
Antojitos La Catrina,40.5938406,-73.98499749999999,,0,,restaurant,google,ChIJza_pezJFwokRbouLfJySrFQ
Bowl 360 Brooklyn,40.58900549999999,-73.9735905,3.7,1736,,restaurant,google,ChIJSaZN_VBEwokRxYCLU1AOmC4
Knapp Pizza II,40.590349,-73.97322799999999,4.0,1190,1.0,restaurant,google,ChIJYQ4BzVBEwokR073IVX2sqwE
Skyline Billiards & Bar,40.5907927,-73.9738141,4.6,356,1.0,restaurant,google,ChIJn0VRLFdEwokRmcNR1xv2RgA
Dunkin',40.5904226,-73.9727867,3.7,436,1.0,restaurant,google,ChIJ93JjNVdEwokRoJ5EXFbJbGU
Love & Delicious Deli,40.5908026,-73.9696427,4.0,28,1.0,restaurant,google,ChIJHdKFk1lEwokR81mJ2gfjba8
Famous,40.59038349999999,-73.9734661,3.0,85,1.0,restaurant,google,ChIJGchv0lBEwokRDKcmVR3pkM8
Hunan Cottage,40.59053849999999,-73.9720203,4.1,214,1.0,restaurant,google,ChIJgXqZTVdEwokRcvfaO1cOTUo
New Star,40.5863234,-73.9716536,3.4,84,1.0,restaurant,google,ChIJhTIp4IdEwokR8LHRClEBbhQ
Ave-Z Deli & Pizza,40.586244,-73.9715721,4.3,117,,restaurant,google,ChIJ9yrpC1BEwokR-SyojT_4_u8
Crab Du Jour Xpress Cajun Seafood,40.58633109999999,-73.9715895,3.8,113,2.0,restaurant,google,ChIJlULlAGdFwokRhh0bKAGXWyM
DESI FOODS,40.5847264,-73.96822499999999,5.0,1,,restaurant,google,ChIJtc0sRztFwokRLA1-B8qGWn0
United Express Deli & Grill,40.5902534,-73.9739584,4.5,84,1.0,restaurant,google,ChIJ8bSC1lBEwokRGze0tPjSaLg
Frutas locas,40.5902926,-73.9737971,5.0,8,,restaurant,google,ChIJU1SxyVVFwokR29H-e_Ge-dU
Burger King,40.5902982,-73.9750308,3.6,156,1.0,restaurant,google,ChIJVTWGxz9FwokRXUkd7nfKCvo
Mr Tongue,40.5903789,-73.973485,2.2,10,,restaurant,google,ChIJiy6buF9EwokRoP8c-lZ9AJA
Ocean Deli And Grill Inc,40.5861323,-73.96679139999999,4.0,116,1.0,restaurant,google,ChIJqc9Za1tEwokRhd29P7dxD6U
Farmer's Fridge,40.58603,-73.96573,,0,,restaurant,google,ChIJ_SSdKmdFwokRg8_tWge1eoM
Zinger Halal Express,40.5908396,-73.96948850000001,4.5,859,1.0,restaurant,google,ChIJecXRLpNFwokR2wg48OiIVD8
ресторан хот док,40.59088790000001,-73.9687532,4.0,4,,restaurant,google,ChIJ-RXMbABFwokRD_XyOhZezAY
LavashUzN1,40.59088790000001,-73.9687532,4.4,403,,restaurant,google,ChIJff59M0ZFwokRwGYaGCe-JzI
Al-Bari Restaurant,40.59088790000001,-73.9687532,3.9,22,,restaurant,google,ChIJ8XvrylpFwokRCFtC-Vf6vGE
WB Deli & Grill,40.5806589,-73.96667459999999,4.3,111,,restaurant,google,ChIJFQG1FUREwokRVgzvudKjpj4
China 1,40.59223360000001,-73.9773348,3.7,63,,restaurant,google,ChIJcTokLjpFwokRhgJPNnQkaio
718 Bistro,40.5805426,-73.966065,4.4,341,2.0,restaurant,google,ChIJVZUbAiZFwokRXZMhO9FWIuI
New York Fried Chicken & Pizza,40.5925769,-73.977942,4.0,311,1.0,restaurant,google,ChIJ4Ull_VREwokRZKFHtMMYEjI
The B’aluk’s Cravings,40.5926205,-73.9779295,4.9,87,1.0,restaurant,google,ChIJSyGjdv9FwokRt4pCPrk_tkg
Taqueria El Buen Gusto,40.5813889,-73.9636111,4.2,238,1.0,restaurant,google,ChIJVXdqoUNEwokR18TJ_ARVpEY
Subway,40.5873906,-73.95380399999999,3.5,148,1.0,restaurant,google,ChIJkcuMrmZEwokRFKSx4etvhEI
Masakari Japanese Fusion,40.5868889,-73.95245,4.3,791,2.0,restaurant,google,ChIJpTlrDWREwokRHgA5iB-AsqA
Nargis Cafe,40.5865048,-73.95187849999999,4.2,2951,2.0,restaurant,google,ChIJdZ_Q6F1EwokR_N8wFMX7W3o
7-Eleven,40.5882124,-73.9609174,1.9,237,1.0,restaurant,google,ChIJ56BU5l1EwokRb1yywcIh05o
Bagel Boy,40.5879751,-73.9532578,4.4,1479,2.0,restaurant,google,ChIJ69hU-WNEwokR0PJNMjgucbw
Arbuz Cafe,40.5857324,-73.9519796,3.9,398,1.0,restaurant,google,ChIJaVzxRmREwokRlNgduMbOqXU
CAFE GALLERY,40.588235,-73.96005099999999,4.0,387,2.0,restaurant,google,ChIJdbV3-11EwokRKmIcrTbwfr0
La Casa Mia,40.58729139999999,-73.9545124,4.1,347,2.0,restaurant,google,ChIJ031ZsGZEwokRb7D4WeEfTTY
Apani,40.5871131,-73.9535502,4.4,72,,restaurant,google,ChIJBa2SAmREwokRbFg30MdnCxY
My House Burgers and Shakes,40.58658459999999,-73.95259209999999,4.2,1601,2.0,restaurant,google,ChIJyUdAF2REwokRoTmU1dknGYs
Anatolian Gyro,40.58747020000001,-73.9531485,3.9,1404,2.0,restaurant,google,ChIJ9QbRBWREwokRUw54iUP92Xs
Fuel,40.5855942,-73.9513432,4.4,373,2.0,restaurant,google,ChIJAwDBWmREwokRPjZ8hA0XU5w
Caspiy,40.587957,-73.95581899999999,4.3,131,2.0,restaurant,google,ChIJu_efzWZEwokRexJTiu9AlLw
Tete-a-Tete,40.5877552,-73.955109,4.3,1225,2.0,restaurant,google,ChIJK5rdymZEwokRL7kuAxyK0OU
Coney Island Bagels,40.58760160000001,-73.9600234,4.1,524,1.0,restaurant,google,ChIJv0cN8l1EwokRgPbj-RNKIbk
Oasis Cafe,40.5910115,-73.96037749999999,4.5,538,2.0,restaurant,google,ChIJvQUmPV5EwokRK9nwNPF4t38
Wheeler's,40.5857958,-73.951612,4.5,1298,1.0,restaurant,google,ChIJwUxdRGREwokR4XaeRzDcmak
Delmar Pizzeria,40.5862164,-73.9522507,4.3,767,1.0,restaurant,google,ChIJUVHdP2REwokRzBptmUw7GdU
Veres Restaurant,40.58621119999999,-73.9607008,5.0,3,,restaurant,google,ChIJKSLUDLJFwokR51Q5Q_tWB9k
N’Joy Family Cafe,40.58621119999999,-73.9607008,4.4,295,,restaurant,google,ChIJST5CkyRFwokR7OVFWv8b_80
Asian King,40.58769119999999,-73.960185,4.0,148,1.0,restaurant,google,ChIJ8ZFhntdFwokRu8WZZpyJg7c
Tsob -Tsobe! Cafe Bar Lounge,40.5878486,-73.9600229,4.1,896,2.0,restaurant,google,ChIJ2RMYH1hFwokRA0M-4GQmVtI
China Long,40.5819972,-73.96079089999999,3.6,47,1.0,restaurant,google,ChIJl1iMcb9FwokRw5mIeA-K2iU
Tex's Chicken & Burgers,40.5818843,-73.9609406,4.1,429,1.0,restaurant,google,ChIJIXmRuINFwokRLkkhXop7Uqc
Halal Foods,40.5814695,-73.96157699999999,,0,,restaurant,google,ChIJMX6_ZwBFwokR1e_vWhdD16U
Shama Restaurant,40.58134769999999,-73.9617167,4.1,296,1.0,restaurant,google,ChIJ7Yn0V0JEwokRT8yj82MDEww
Tacos Poblanos,40.5817331,-73.96019559999999,4.4,69,,restaurant,google,ChIJ65b1OBBFwokR8vB5wJVI_wc
Neptune Pizza,40.58183620000001,-73.9597616,4.4,181,1.0,restaurant,google,ChIJhxRanUJEwokRR03qOKlPM18
Level Restaurant & Bar,40.5887272,-73.96018269999999,4.4,816,,restaurant,google,ChIJO8HZqcRFwokRDgSJh5IdCdY
Dmitriev's Bistro,40.5874734,-73.9577427,4.9,39,,restaurant,google,ChIJW8VwqehFwokRI5xskvcOwBQ
Casa Malinche,40.581086,-73.960139,4.4,7,,restaurant,google,ChIJGSw-fUJEwokRAXId59j328E
E Sushi II,40.5888465,-73.9491577,4.2,974,2.0,restaurant,google,ChIJQdooxllDwokR0slzWjBMCxc
Ginza Sushi,40.59298829999999,-73.949933,4.5,490,1.0,restaurant,google,ChIJs62XMIhEwokRvgvwbig3BcA
Mtskheta Restaurant,40.5928722,-73.95053260000002,4.6,607,2.0,restaurant,google,ChIJT8WKg6pFwokRu5rncwZjk0c
Hayashi Sushi,40.5904953,-73.9494067,4.4,392,2.0,restaurant,google,ChIJ4XeB6WJEwokR2aR2fMRp8pA
Top Taco & Top China,40.5865329,-73.9524461,3.8,145,1.0,restaurant,google,ChIJtasbFGREwokRFmwNkcq5XBA
Bassett Caterers,40.5919797,-73.9558523,4.7,620,1.0,restaurant,google,ChIJAQSPxWFEwokRegMjFjMYEno
Chinatown Restaurant,40.5864498,-73.9455576,3.7,113,1.0,restaurant,google,ChIJMcRdnXxEwokRUXOxcBcBG8g
Meatless Burgers,40.5850024,-73.9509499,5.0,1,,restaurant,google,ChIJj4yl5V1FwokRScuSveOcEOI
Turkish Street Fast Food,40.5850024,-73.9509499,5.0,1,,restaurant,google,ChIJ_4p2ZqNFwokRGg_laL__nJ0
"The Blaze Gourmet, Burger-Gyro-Vegan Kofteh",40.5850024,-73.9509499,4.7,337,2.0,restaurant,google,ChIJ9-TMhA1FwokR1hax5lREVK0
Munchinette,40.585088,-73.9516754,4.7,293,1.0,restaurant,google,ChIJ61qZTWREwokRRRlV6mmZ4Mc
Fujisawa Asian Fusion & Bar,40.58538069999999,-73.951756,4.6,146,2.0,restaurant,google,ChIJl_sp-GNFwokRutrdXFjg5hk
Terra,40.5856004,-73.9518057,4.3,466,2.0,restaurant,google,ChIJjYSZSGREwokRtnAzLYJ_UwU
Masuta Japanese Fusion,40.58563929999999,-73.9518708,4.6,553,2.0,restaurant,google,ChIJk_6VWDZFwokR4rxb93ADuLw
Kosan Asian Fusion,40.58644080000001,-73.9519092,4.5,145,2.0,restaurant,google,ChIJ2ykkbalFwokRUCVTZxlQs0Y
Shinjuku Japanese Fusion,40.58626280000001,-73.95239680000002,4.3,58,2.0,restaurant,google,ChIJFQj4ubJFwokR-RKOAtdLW6k
Vanka Cafe,40.59101870000001,-73.9404373,4.5,534,2.0,restaurant,google,ChIJAdncnoBEwokRtpRh7EFR6mQ
7-Eleven,40.5878537,-73.9321895,4.2,79,1.0,restaurant,google,ChIJYw7jvoFDwokRhHwhmivYlSk
Jannet Aden Yemeni Restaurant,40.58902390000001,-73.9428018,4.4,320,2.0,restaurant,google,ChIJY9JNkIVFwokRgKYyCLiBRPQ
Rethink cusine,40.589398,-73.94258769999999,5.0,3,2.0,restaurant,google,ChIJY0Qr231EwokRLbnas-jBR4E
Cactus,40.590117,-73.940161,4.1,197,1.0,restaurant,google,ChIJry25PH5EwokRXyrARmFaVXE
Oda House Brooklyn,40.5839645,-73.9465032,4.4,613,2.0,restaurant,google,ChIJJ1Y0dv9FwokRlwdFP_s3az0
Umi Premium Sushi & Seafood Buffet,40.5904076,-73.9393346,4.2,2854,1.0,restaurant,google,ChIJpeH2dopFwokRrWe-7wIe4iE
Halal Munchies,40.5906386,-73.9402506,4.5,157,1.0,restaurant,google,ChIJd7zzCVpFwokR2OBxxgS0qps
Sky Wise Lounge,40.5840174,-73.9468806,4.4,1162,2.0,restaurant,google,ChIJSdT4_c5FwokRLxPDD5MRxYk
Sea Pearl,40.5839234,-73.9469159,4.4,449,2.0,restaurant,google,ChIJXWuLcXJFwokRjC6BXIvfFo8
Cold Stone Creamery,40.5867539,-73.929262,4.2,577,2.0,restaurant,google,ChIJbSld0oNDwokRL7dU5hXOM4o
Dunkin',40.5862722,-73.9309928,3.9,258,1.0,restaurant,google,ChIJJ6tKY4FDwokRyI9GGo-0oiE
Knapp Street Deli,40.5864821,-73.93127369999999,4.3,449,1.0,restaurant,google,ChIJoWM8coFDwokR7wQHVlz9ld0
EXIT 9,40.58653319999999,-73.93110730000001,4.7,152,,restaurant,google,ChIJQ9CfQyZDwokRwTdQfyQSU4U
Popeyes Louisiana Kitchen,40.5920944,-73.9404907,4.4,720,1.0,restaurant,google,ChIJyVPphbtFwokRIIfY5qz0TOg
Backyard Pizza Cafe,40.5888468,-73.9478716,4.7,240,2.0,restaurant,google,ChIJSaDLJVlFwokRNUgZUUoFzFM
New Great Wall,40.59372860000001,-73.9402628,3.8,153,1.0,restaurant,google,ChIJkfNLF4FEwokRQl1NaKBpE7Y
Dunkin',40.5936154,-73.940221,3.7,215,1.0,restaurant,google,ChIJidFVH4FEwokRYDNBKmhM8jk
Clemente's Crab House,40.5851132,-73.9262942,4.3,1516,2.0,restaurant,google,ChIJmTYGDINDwokRhrrbU8mJWsY
Jordan's Lobster Dock,40.5904021,-73.9300257,4.2,804,2.0,restaurant,google,ChIJbSld0oNDwokRGlLcEtqUQfU
The Gather Inn Again,40.5927693,-73.9254077,4.3,140,1.0,restaurant,google,ChIJQTax7XlDwokR3hFnI30kJog
Wicked Chef,40.5920055,-73.9315274,,0,2.0,restaurant,google,ChIJX0BMe7ZDwokRzaLr9SQjrL8
Victoria Pizzeria,40.592846,-73.925483,4.4,298,1.0,restaurant,google,ChIJg1eL7XlDwokRa9vssRKss0Q
Bungalow Bar,40.5891852,-73.8171514,4.4,2217,2.0,restaurant,google,ChIJUXf_vkBowokRJ5HnySRbQPA
Uma's,40.58617,-73.815637,4.5,436,2.0,restaurant,google,ChIJqStTHEdowokRMz_JLWKEx74
McDonald's,40.5889599,-73.8169546,3.3,1748,1.0,restaurant,google,ChIJR1L_wEBowokRMCcliOVo-aM
Crown Square Pizza,40.58425589999999,-73.8206709,,0,,restaurant,google,ChIJN-oxM15pwokRwe2xj3FE_-I
Brisas Del Mar,40.584274,-73.82053599999999,4.4,593,1.0,restaurant,google,ChIJWaZ4MDhowokRHl-8pMmTW_g
Deli Grill,40.585272,-73.8199022,3.9,7,,restaurant,google,ChIJXw2wQjhowokRkLMNqg9GelA
Caracas Arepa Bar (summer only),40.58057549999999,-73.82596079999999,4.4,1535,2.0,restaurant,google,ChIJDyuVOTFowokRxoNiIObm4Tk
Xing Xing,40.5848276,-73.8192907,3.8,126,1.0,restaurant,google,ChIJU8UJbDhowokRXpKbEMGSHyU
Raquel Confections,40.5850899,-73.81777149999999,4.0,7,,restaurant,google,ChIJG6xXmz5pwokREbmt-5AT85Y
Seany Pizza (closed for the season),40.5829861,-73.8178538,4.9,58,,restaurant,google,ChIJ15DGWdNpwokRv2Ds6GNWh1w
Edible Island Beach Bites (summer only),40.5830452,-73.8177845,4.5,43,,restaurant,google,ChIJ00QMZ0BpwokR4hb0A2eYn10
Red Hook Lobster Pound,40.5829146,-73.8175073,3.1,33,,restaurant,google,ChIJA54-Tt5pwokRpDP2YEcyTZM
La Cevicheria,40.5829146,-73.8175073,4.5,161,2.0,restaurant,google,ChIJ-4HHGThowokRCycpayEHDjg
Panino Bozza,40.583146,-73.81663879999999,4.7,11,,restaurant,google,ChIJJR-7TABpwokRizmLBLEpInw
Elegante Restaurant & Pizzeria,40.5862659,-73.8154509,4.4,699,2.0,restaurant,google,ChIJfdftHUdowokRVbCXKo_CjlQ
SIMILAN ON THE BAY,40.5889927,-73.81733090000002,4.9,622,,restaurant,google,ChIJjQW1GQBpwokRAut3VQszkT0
Kimo's,40.5863456,-73.8160552,4.8,1153,2.0,restaurant,google,ChIJAQCVGUdowokRpauTlXu2HP4
Oasis,40.58644279999999,-73.81582829999999,4.7,280,2.0,restaurant,google,ChIJg0wl7expwokRFkfksbzlMSQ
Sayra's Wine Bar,40.5864689,-73.8151676,4.4,237,2.0,restaurant,google,ChIJ-VKS3UZowokRPlge9pedirs
La Cabaña Peruana,40.5864757,-73.8151415,3.8,406,2.0,restaurant,google,ChIJ2f6u4EZowokRCGppFkkvoQ8
Best Caribbean,40.5868784,-73.8149339,4.0,130,,restaurant,google,ChIJ__-v20ZowokRZBkjKsSwHnI
Dunkin',40.5868414,-73.8121724,3.4,85,1.0,restaurant,google,ChIJUxdQ3EZowokR9bFF5qpRLSQ
The sandwich spot,40.58751710000001,-73.8128249,4.3,183,1.0,restaurant,google,ChIJ45aFVEFowokRzeQFjjjN72I
The Restaurant,40.5870657,-73.8116321,4.3,430,2.0,restaurant,google,ChIJ28bt80NowokRVoTSMDES8lI
Tacoway Beach,40.5888131,-73.8121408,4.5,737,,restaurant,google,ChIJe-Hu20NowokRLK8_IdWQcR8
301,40.5871292,-73.8115943,3.9,238,1.0,restaurant,google,ChIJy8OX80NowokRk_cqtufv-Yk
Dragon Garden,40.58761860000001,-73.81193549999999,3.7,161,1.0,restaurant,google,ChIJlb2X-UNowokRIMWDvrQ1CwE
Popeyes Louisiana Kitchen,40.5872545,-73.8108312,3.7,555,1.0,restaurant,google,ChIJj6LiW6dZwokRnG80YlCBDIQ
Sal y Lima,40.587291,-73.81389999999999,4.4,49,,restaurant,google,ChIJj4mNjp1pwokRBeb5n_Bo81U
Domino's Pizza,40.58681579999999,-73.8125331,4.4,105,1.0,restaurant,google,ChIJcb4X5EhpwokR-zwZ_Tbb2mM
HH Heat Wave,40.58736020000001,-73.8134572,4.5,52,,restaurant,google,ChIJUylAnnJpwokRXNRa3rjxSwM
La Playa,40.587608,-73.812828,4.1,188,1.0,restaurant,google,ChIJzZKTVEFowokRkvKuo6_SRtk
RIPPERS,40.58463939999999,-73.8108278,4.4,901,2.0,restaurant,google,ChIJ91ub_jdowokR-ZC_n_e11gI
Subway,40.5905774,-73.79732299999999,4.2,279,1.0,restaurant,google,ChIJ25M_emBowokRjImQaYoI0FQ
Dunkin',40.5906661,-73.7972439,3.8,255,1.0,restaurant,google,ChIJVfB3L15owokRA9trv19YiUk
Goody's BBQ Chicken and Ribs,40.5928263,-73.79986629999999,4.4,938,1.0,restaurant,google,ChIJR51f2GBowokR8qa093vBLV4
SluttySammys,40.5872781,-73.7955059,4.9,14,,restaurant,google,ChIJkyUzH5hpwokRXCDCdUWJlvQ
Starbucks,40.59118,-73.80118,3.5,282,2.0,restaurant,google,ChIJzY1ZPGhpwokRv2oaZX6-pHs
Locals Collective NYC,40.5898465,-73.7974272,4.5,157,,restaurant,google,ChIJpS60CuyBt4cRMMA4nfpOab0
Pilot House Bar & Grill,40.5899677,-73.7973209,4.4,123,,restaurant,google,ChIJd21zlSlpwokRqwDufnF0JEo
Super Burrito Rockaway | Queens,40.5900842,-73.7974626,4.4,397,1.0,restaurant,google,ChIJW4RHyXxpwokRqmlFjoOYsDE
Batesy’s BBQ and Bar,40.59067140000001,-73.79710159999999,4.5,337,2.0,restaurant,google,ChIJD3uLBJlpwokRBycOKSmlSIk
Boardwalk Pizzeria,40.5907478,-73.7970504,4.1,1069,2.0,restaurant,google,ChIJ25M_emBowokR4_o2VyDYHiw
China King,40.5924983,-73.7992405,3.3,198,1.0,restaurant,google,ChIJYQ2x4GBowokRRS6VbzpWTsA
Rockaway Tiki Bar,40.590822,-73.7968142,4.6,248,2.0,restaurant,google,ChIJwa5dbmBowokRvCuGq0QpYG0
Chuck E. Cheese,40.59990039999999,-74.19304530000001,4.2,1231,2.0,restaurant,google,ChIJG4aHCpZMwokRf3ufTWam83w
West Shore Inn Steakhouse,40.5942031,-74.1866486,4.4,1244,2.0,restaurant,google,ChIJE6FIRJpMwokR7-7l7RQ_j98
MAESTRO Gourmet Deli,40.5940228,-74.1865322,4.8,36,,restaurant,google,ChIJfdRtUPhNwokR7NwaGUZ_l_8
Maynila,40.60158200000001,-74.17674939999999,4.6,64,,restaurant,google,ChIJew-DyDBXwokR2NYuxU4zgY8
Ti Amo Pizza,40.6013804,-74.1766281,4.5,240,1.0,restaurant,google,ChIJWVWHgItMwokR9QdEJE4ZPE4
Francesco’s Supper Club,40.6016528,-74.1767615,4.5,434,2.0,restaurant,google,ChIJOQOQhItMwokRd0u7JjuGXTQ
Yalla Market بقالة عربية و لحوم حلال,40.6012267,-74.17725399999999,5.0,7,,restaurant,google,ChIJNetz6H9NwokRys_Itf1nucM
Taqueria Mexican Restaurant,40.6011877,-74.1770258,4.2,135,1.0,restaurant,google,ChIJCXWUh2JNwokRM7AUIIMm7uA
1001 Nights Cafe’ & Dessert,40.598306,-74.1619341,4.1,219,1.0,restaurant,google,ChIJhx6uh2ZMwokR5L2R5XcOHXw
Sandwich and Pickle Modern Delicatessen,40.6004915,-74.1625743,4.6,318,2.0,restaurant,google,ChIJ2Q4V4kVNwokR0FU6vdDE69k
Farington's Cafe and Restaurant,40.6005083,-74.16231049999999,4.8,142,2.0,restaurant,google,ChIJ25ZuyOxNwokRlOphQFzk52s
Farmer's Fridge,40.599666,-74.149711,,0,,restaurant,google,ChIJgV6f_p9NwokRgEE_UBKQ40o
Chickies,40.5948316,-74.1264827,4.6,16,4.0,restaurant,google,ChIJj8RXfQBNwokRucwr39gr_LU
SILK SPOON,40.5996363,-74.1312677,5.0,19,,restaurant,google,ChIJ-VcdLsxNwokRFk0hrPEJf18
Dunkin',40.6020742,-74.1202307,3.8,242,1.0,restaurant,google,ChIJC1IuMJxOwokRG6c-LCfokZQ
HKS Kitchen港餐飽,40.5942815,-74.098692,4.4,377,2.0,restaurant,google,ChIJ6wiHlupOwokR7v4CzlBucy0
Primo Pizzeria,40.5961395,-74.0950284,4.2,314,1.0,restaurant,google,ChIJf0BM2etOwokRWnK815xjtgI
Osteria by Primo,40.5961133,-74.0949294,4.8,129,,restaurant,google,ChIJxZQI359PwokRcoim1b6Sw9Y
John's Deli,40.60090969999999,-74.0922909,4.1,225,2.0,restaurant,google,ChIJ9Vrd_lJJwokRWLsoVW3Ajxs
Tienda Valentina’s Restaurant Corp.,40.60090969999999,-74.0922909,4.9,37,1.0,restaurant,google,ChIJlXf8VoFPwokR99cp0n19QBg
No 1 Chinese Kitchen,40.5971696,-74.0842435,3.9,100,2.0,restaurant,google,ChIJtezdauROwokR-XyJNNk5B1g
Bocelli,40.59740559999999,-74.08412009999999,4.6,647,3.0,restaurant,google,ChIJtezdauROwokRWI_0uphXQZ8
Perkins American Food Co.,40.5944214,-74.08699969999999,4.1,1205,2.0,restaurant,google,ChIJV6ozTOZOwokRw6e2OvW5rA0
Brooklyn's Finest Pizza,40.5972028,-74.0841631,4.0,471,1.0,restaurant,google,ChIJtezdauROwokRAPooq5krM4k
Royal Crown Bakery,40.595582,-74.085566,4.5,2507,2.0,restaurant,google,ChIJFQTmieZOwokRGflKWEJarOY
Domino's Pizza,40.59653950000001,-74.0850887,3.3,429,1.0,restaurant,google,ChIJ91OIL-ROwokR6hM5B5T62xU
Fuji,40.59875400000001,-74.079726,3.9,293,2.0,restaurant,google,ChIJ_bvj4uJOwokRIaO6AViRitg
Dunkin',40.5965922,-74.0850447,3.7,366,1.0,restaurant,google,ChIJ91OIL-ROwokR5nrij2SH5Dc
Nino's Restaurant,40.5983333,-74.07972219999999,4.6,920,2.0,restaurant,google,ChIJFwwL_uJOwokRDxxDb9QXih0
Cafe Luna,40.5966769,-74.0851704,4.5,366,2.0,restaurant,google,ChIJ91OIL-ROwokRWIhEdTkh8SQ
Popeyes Louisiana Kitchen,40.5946487,-74.08607429999999,3.6,153,1.0,restaurant,google,ChIJPVRatr5PwokReYTOrckjEHA
Hylan Grab & Go,40.5964092,-74.0851919,5.0,4,,restaurant,google,ChIJfw1kXHpPwokRu88qo6UwYJI
Pho Plus Vietnamese noodle,40.59690299999999,-74.08510009999999,4.3,158,1.0,restaurant,google,ChIJyU7nNwJPwokRGfr_mXW-ByE
Plantega (Shop N Save Superette),40.59828419999999,-74.0817596,3.2,6,,restaurant,google,ChIJAZ8jtf1PwokR4leCDjl8emE
Naija Bar & Grill,40.59840200000001,-74.0808854,3.0,38,2.0,restaurant,google,ChIJyXh4tuNPwokRPU2fBiSmivk
Chinar On The Island,40.5927938,-74.0680075,4.4,483,2.0,restaurant,google,ChIJFbMynxlPwokR7RkC4CN3L58
Terminal 1,40.5921151,-74.06780979999999,4.3,133,1.0,restaurant,google,ChIJcXB2pRlPwokRlQl_q6j0_bI
Subway,40.59192710000001,-74.0676129,3.0,77,1.0,restaurant,google,ChIJ9ckGrxlPwokRxeyrwyrjyOg
Dragon House,40.59245299999999,-74.0684053,3.9,169,1.0,restaurant,google,ChIJWxSJCRlPwokRT2oLWNElNQM
L & R Pizza & Pasta,40.5981761,-74.0664425,4.3,227,1.0,restaurant,google,ChIJfdD-thpPwokRzeFfGeJ29yI
Ran Viet,40.5976874,-74.0731322,4.4,115,,restaurant,google,ChIJLbrVzOBPwokRznrrJEkWiBg
Nori Sushi and Ramen,40.59812590000001,-74.07242339999999,4.4,141,2.0,restaurant,google,ChIJyWN1GRdPwokRdXcOh0Thge4
Mr. Week Armenian Restaurant,40.5964282,-74.0705163,4.7,115,2.0,restaurant,google,ChIJH3OKlgtPwokRln7PDeg-vMM
El Cactus Mexican Restaurant,40.59273200000001,-74.0684789,4.8,191,2.0,restaurant,google,ChIJXREKh85PwokRrHn9H9J9KZA
"Nueva Michoacana Dell, Inc. Comida Mexicana",40.5926857,-74.0684735,4.5,59,,restaurant,google,ChIJJW4cCxlPwokRpZto32EV4Tk
South beach tasty eats,40.5924166,-74.06783229999999,5.0,1,,restaurant,google,ChIJa_bQFbNPwokRLmTxKoeEaeA
Caravan Restaurant & Coffee,40.59220750000001,-74.0677628,4.5,191,2.0,restaurant,google,ChIJp8cM5eJOwokRGmWSzz6XuCE
Flavor by Jardel,40.5928511,-74.0662906,,0,,restaurant,google,ChIJxZt8xxtPwokRVAjullL6lBs
Via Ponte Pizzeria,40.597973,-74.06705629999999,4.2,265,2.0,restaurant,google,ChIJj6-IxhpPwokRiBO1DXyPteU
Italianissimo Ristorante Cafe Bar,40.5986314,-74.0656973,4.6,348,2.0,restaurant,google,ChIJnSuprBpPwokRLzOTGtD-y_A
Basilio Inn,40.59740499999999,-74.063757,4.6,516,2.0,restaurant,google,ChIJQZl3PhBPwokRMSaa3DLb1Zo
Boardwalk Grill,40.5902948,-74.0651534,2.6,13,,restaurant,google,ChIJ1VfxvQhPwokRKp52jj1lUo8
China Garden,40.601024,-74.00131999999999,3.3,79,1.0,restaurant,google,ChIJgQO4JApFwokRne6LokX8ebw
Istanbul Bay,40.6016833,-73.9938111,4.0,2053,2.0,restaurant,google,ChIJeXv2OgZFwokRuJrHz4Yl-Jc
McDonald's,40.5993204,-73.9889772,3.7,2553,1.0,restaurant,google,ChIJbcuCMwdFwokRVmBMMJ_QtLY
Sake Sushi,40.6000449,-73.990303,4.1,1621,1.0,restaurant,google,ChIJ-w2_IQdFwokRcra2cSm8kPE
Starbucks,40.59524,-74.00007,3.7,538,2.0,restaurant,google,ChIJAcvI8aNFwokR66KTXE3TbGk
Five Guys,40.5952352,-74.0001889,4.1,1001,2.0,restaurant,google,ChIJ3XR8AlNbwokRafmD4huXlzQ
Dunkin',40.598083,-73.9972252,3.0,271,1.0,restaurant,google,ChIJjTWuhKdFwokRAkMOTMhm_5g
Duck Wong,40.6002288,-73.9903719,4.1,378,1.0,restaurant,google,ChIJhbWIHwdFwokROBA-HmRpxf4
Wendy's,40.59547529999999,-74.0002021,3.9,2513,1.0,restaurant,google,ChIJe1PTtaZFwokR0X9yagW5pIM
Free Time Hangout,40.6020969,-73.9944129,3.2,53,,restaurant,google,ChIJv3AJIQZFwokRR48asKfW874
Golden Bay,40.60238489999999,-73.99502880000001,3.7,191,2.0,restaurant,google,ChIJ-8UKoQhFwokRjRg8r6mtq9M
Toshkent Restaurant,40.60169119999999,-74.00158429999999,4.2,926,,restaurant,google,ChIJ49pPMgpFwokR5YaDoCeCDzM
La Bella Pizza Express,40.601972,-73.99420340000002,4.2,661,1.0,restaurant,google,ChIJwW-jIwZFwokRiP2RpIq-WmI
